time,READ Read_LMO,READ Read_RMO,READ Read_anglePIDOutput,READ Read_APIDKp,READ Read_APIDKi,READ Read_APIDKd,READ Read_APIDAggKp,READ Read_APIDAggKi,READ Read_APIDAggKd,READ Read_SPIDKp,READ Read_SPIDKi,READ Read_SPIDKd,READ Read_Yaw,READ Read_Roll,READ Read_Pitch,READ Read_MotorsON,READ Read_LoopT,READ Read_SetsteerGain,READ Read_SetthrottleGain,READ Read_TriggerAngleAggressive,READ Read_Info,READ Read_ISTE,READ Read_BAL,READ Read_calibratedZeroAngle,
1414323613568,1.00,0.00,100.00,868.00,395.00,34.00,1970.00,16.00,551.00,5668.00,0.00,50.00,35.04,1.45,-7.02,False,5,0,0,750.00,System,0.11,0.05,180.00,
1414323613970,1.00,0.00,100.00,868.00,395.00,34.00,1970.00,16.00,551.00,5668.00,0.00,50.00,35.17,1.42,-7.03,False,5,0,0,750.00,System,0.11,0.05,180.00,
1414323614114,1.00,0.00,100.00,868.00,395.00,34.00,1970.00,16.00,551.00,5668.00,0.00,50.00,35.20,1.44,-7.02,False,5,0,0,750.00,System,0.17,0.08,180.00,
1414323614613,-1.00,0.00,100.00,868.00,395.00,34.00,1970.00,16.00,551.00,5668.00,0.00,50.00,35.33,1.46,-7.03,False,5,0,0,750.00,System,0.17,0.08,180.00,
1414323614903,-1.00,0.00,100.00,868.00,395.00,34.00,1970.00,16.00,551.00,5668.00,0.00,50.00,35.43,1.48,-7.02,False,5,0,0,750.00,System,0.17,0.08,180.00,
1414323615371,-1.00,0.00,100.00,868.00,395.00,34.00,1970.00,16.00,551.00,5668.00,0.00,50.00,35.57,1.44,-7.03,False,6,0,0,750.00,System,0.20,0.10,180.00,
1414323615706,1.00,0.00,100.00,868.00,395.00,34.00,1970.00,16.00,551.00,5668.00,0.00,50.00,35.66,1.45,-7.04,False,5,0,0,750.00,System,0.17,0.08,180.00,
1414323615858,1.00,0.00,100.00,868.00,395.00,34.00,1970.00,16.00,551.00,5668.00,0.00,50.00,35.72,1.47,-7.03,False,5,0,0,750.00,System,0.17,0.08,180.00,
1414323616046,1.00,0.00,100.00,868.00,395.00,34.00,1970.00,16.00,551.00,5668.00,0.00,50.00,35.76,1.48,-7.02,False,6,0,0,750.00,System,0.13,0.07,180.00,
1414323616338,1.00,0.00,100.00,868.00,395.00,34.00,1970.00,16.00,551.00,5668.00,0.00,50.00,35.86,1.48,-7.03,False,5,0,0,750.00,System,0.17,0.08,180.00,
1414323616677,1.00,0.00,100.00,868.00,395.00,34.00,1970.00,16.00,551.00,5668.00,0.00,50.00,35.94,1.49,-7.05,False,6,0,0,750.00,System,0.20,0.10,180.00,
1414323617190,-1.00,0.00,100.00,868.00,395.00,34.00,1970.00,16.00,551.00,5668.00,0.00,50.00,36.06,1.49,-7.06,False,5,0,0,750.00,System,0.17,0.08,180.00,
1414323617827,-1.00,0.00,100.00,868.00,395.00,34.00,1970.00,16.00,551.00,5668.00,0.00,50.00,36.25,1.49,-7.07,False,5,0,0,750.00,System,0.17,0.08,180.00,
1414323617988,1.00,0.00,100.00,868.00,395.00,34.00,1970.00,16.00,551.00,5668.00,0.00,50.00,36.30,1.49,-7.06,False,5,0,0,750.00,System,0.11,0.06,180.00,
1414323618537,1.00,0.00,100.00,868.00,395.00,34.00,1970.00,16.00,551.00,5668.00,0.00,50.00,36.43,1.48,-7.05,False,5,0,0,750.00,System,0.11,0.06,180.00,
1414323618692,-1.00,0.00,100.00,868.00,395.00,34.00,1970.00,16.00,551.00,5668.00,0.00,50.00,36.46,1.48,-7.06,False,5,0,0,750.00,System,0.11,0.06,180.00,
1414323618846,1.00,0.00,100.00,868.00,395.00,34.00,1970.00,16.00,551.00,5668.00,0.00,50.00,36.51,1.48,-7.08,False,5,0,0,750.00,System,0.11,0.06,180.00,
1414323619163,-1.00,0.00,100.00,868.00,395.00,34.00,1970.00,16.00,551.00,5668.00,0.00,50.00,36.60,1.48,-7.06,False,5,0,0,750.00,System,0.11,0.06,180.00,
1414323619487,-1.00,0.00,100.00,868.00,395.00,34.00,1970.00,16.00,551.00,5668.00,0.00,50.00,36.69,1.48,-7.05,False,6,0,0,750.00,System,0.13,0.07,180.00,
1414323619810,1.00,0.00,100.00,868.00,395.00,34.00,1970.00,16.00,551.00,5668.00,0.00,50.00,36.76,1.48,-7.06,False,5,0,0,750.00,System,0.17,0.08,180.00,
1414323619966,1.00,0.00,100.00,868.00,395.00,34.00,1970.00,16.00,551.00,5668.00,0.00,50.00,36.83,1.49,-7.07,False,5,0,0,750.00,System,0.11,0.06,180.00,
1414323620285,1.00,0.00,100.00,868.00,395.00,34.00,1970.00,16.00,551.00,5668.00,0.00,50.00,36.92,1.49,-7.06,False,5,0,0,750.00,System,0.11,0.06,180.00,
1414323620443,-1.00,0.00,100.00,868.00,395.00,34.00,1970.00,16.00,551.00,5668.00,0.00,50.00,36.97,1.48,-7.07,False,5,0,0,750.00,System,0.17,0.08,180.00,
1414323620602,1.00,0.00,100.00,868.00,395.00,34.00,1970.00,16.00,551.00,5668.00,0.00,50.00,37.01,1.50,-7.08,False,5,0,0,750.00,System,0.11,0.06,180.00,
1414323620774,-1.00,0.00,100.00,868.00,395.00,34.00,1970.00,16.00,551.00,5668.00,0.00,50.00,37.06,1.49,-7.07,False,5,0,0,750.00,System,0.11,0.06,180.00,
1414323620929,1.00,0.00,100.00,868.00,395.00,34.00,1970.00,16.00,551.00,5668.00,0.00,50.00,37.11,1.50,-7.06,False,5,0,0,750.00,System,0.17,0.08,180.00,
1414323621079,1.00,0.00,100.00,868.00,395.00,34.00,1970.00,16.00,551.00,5668.00,0.00,50.00,37.14,1.49,-7.05,False,5,0,0,750.00,System,0.11,0.06,180.00,
1414323621722,-1.00,0.00,100.00,868.00,395.00,34.00,1970.00,16.00,551.00,5668.00,0.00,50.00,37.31,1.50,-7.06,False,5,0,0,750.00,System,0.17,0.08,180.00,
1414323621873,1.00,0.00,100.00,868.00,395.00,34.00,1970.00,16.00,551.00,5668.00,0.00,50.00,37.37,1.51,-7.07,False,5,0,0,750.00,System,0.11,0.06,180.00,
1414323622347,1.00,0.00,100.00,868.00,395.00,34.00,1970.00,16.00,551.00,5668.00,0.00,50.00,37.50,1.51,-7.08,False,6,0,0,750.00,System,0.13,0.07,180.00,
1414323622496,1.00,0.00,100.00,868.00,395.00,34.00,1970.00,16.00,551.00,5668.00,0.00,50.00,37.54,1.50,-7.09,False,5,0,0,750.00,System,0.11,0.06,180.00,
1414323623133,-1.00,0.00,100.00,868.00,395.00,34.00,1970.00,16.00,551.00,5668.00,0.00,50.00,37.71,1.50,-7.08,False,6,0,0,750.00,System,0.20,0.10,180.00,
1414323623301,1.00,0.00,100.00,868.00,395.00,34.00,1970.00,16.00,551.00,5668.00,0.00,50.00,37.75,1.49,-7.09,False,7,0,0,750.00,System,0.24,0.12,180.00,
1414323623484,1.00,0.00,100.00,868.00,395.00,34.00,1970.00,16.00,551.00,5668.00,0.00,50.00,37.81,1.49,-7.07,False,6,0,0,750.00,System,0.13,0.07,180.00,
1414323623623,-1.00,0.00,100.00,868.00,395.00,34.00,1970.00,16.00,551.00,5668.00,0.00,50.00,37.86,1.50,-7.05,False,6,0,0,750.00,System,0.13,0.07,180.00,
1414323623930,1.00,0.00,100.00,868.00,395.00,34.00,1970.00,16.00,551.00,5668.00,0.00,50.00,37.93,1.49,-7.06,False,5,0,0,750.00,System,0.11,0.06,180.00,
1414323624280,1.00,0.00,100.00,868.00,395.00,34.00,1970.00,16.00,551.00,5668.00,0.00,50.00,38.01,1.50,-7.05,False,7,0,0,750.00,System,0.16,0.08,180.00,
1414323624449,-1.00,0.00,100.00,868.00,395.00,34.00,1970.00,16.00,551.00,5668.00,0.00,50.00,38.04,1.47,-7.06,False,5,0,0,750.00,System,0.17,0.08,180.00,
1414323624599,-1.00,0.00,100.00,868.00,395.00,34.00,1970.00,16.00,551.00,5668.00,0.00,50.00,38.10,1.48,-7.07,False,5,0,0,750.00,System,0.17,0.08,180.00,
1414323624811,1.00,0.00,100.00,868.00,395.00,34.00,1970.00,16.00,551.00,5668.00,0.00,50.00,38.14,1.48,-7.05,False,7,0,0,750.00,System,0.16,0.08,180.00,
1414323624966,-1.00,0.00,100.00,868.00,395.00,34.00,1970.00,16.00,551.00,5668.00,0.00,50.00,38.18,1.46,-7.03,False,5,0,0,750.00,System,0.17,0.08,180.00,
1414323625282,-1.00,0.00,100.00,868.00,395.00,34.00,1970.00,16.00,551.00,5668.00,0.00,50.00,38.28,1.47,-7.02,False,6,0,0,750.00,System,0.13,0.07,180.00,
1414323625602,-1.00,0.00,100.00,868.00,395.00,34.00,1970.00,16.00,551.00,5668.00,0.00,50.00,38.35,1.47,-7.01,False,5,0,0,750.00,System,0.17,0.08,180.00,
1414323625948,-1.00,0.00,100.00,868.00,395.00,34.00,1970.00,16.00,551.00,5668.00,0.00,50.00,38.44,1.45,-7.00,False,5,0,0,750.00,System,0.11,0.05,180.00,
1414323626087,-1.00,0.00,100.00,868.00,395.00,34.00,1970.00,16.00,551.00,5668.00,0.00,50.00,38.49,1.45,-7.02,False,5,0,0,750.00,System,0.11,0.05,180.00,
1414323626253,1.00,0.00,100.00,868.00,395.00,34.00,1970.00,16.00,551.00,5668.00,0.00,50.00,38.55,1.45,-7.04,False,6,0,0,750.00,System,0.13,0.07,180.00,
1414323626407,-1.00,0.00,100.00,868.00,395.00,34.00,1970.00,16.00,551.00,5668.00,0.00,50.00,38.59,1.45,-7.05,False,5,0,0,750.00,System,0.11,0.05,180.00,
1414323626557,-1.00,0.00,100.00,868.00,395.00,34.00,1970.00,16.00,551.00,5668.00,0.00,50.00,38.64,1.45,-7.04,False,5,0,0,750.00,System,0.11,0.06,180.00,
1414323626718,1.00,0.00,100.00,868.00,395.00,34.00,1970.00,16.00,551.00,5668.00,0.00,50.00,38.68,1.44,-7.05,False,5,0,0,750.00,System,0.11,0.05,180.00,
1414323626867,-1.00,0.00,100.00,868.00,395.00,34.00,1970.00,16.00,551.00,5668.00,0.00,50.00,38.73,1.45,-7.06,False,5,0,0,750.00,System,0.17,0.08,180.00,
1414323627191,1.00,0.00,100.00,868.00,395.00,34.00,1970.00,16.00,551.00,5668.00,0.00,50.00,38.83,1.45,-7.05,False,5,0,0,750.00,System,0.17,0.08,180.00,
1414323627343,-1.00,0.00,100.00,868.00,395.00,34.00,1970.00,16.00,551.00,5668.00,0.00,50.00,38.87,1.45,-7.06,False,5,0,0,750.00,System,0.17,0.08,180.00,
1414323627679,-1.00,0.00,100.00,868.00,395.00,34.00,1970.00,16.00,551.00,5668.00,0.00,50.00,38.96,1.45,-7.08,False,5,0,0,750.00,System,0.17,0.08,180.00,
1414323627968,-1.00,0.00,100.00,868.00,395.00,34.00,1970.00,16.00,551.00,5668.00,0.00,50.00,39.05,1.41,-7.07,False,5,0,0,750.00,System,0.11,0.06,180.00,
1414323628444,1.00,0.00,100.00,868.00,395.00,34.00,1970.00,16.00,551.00,5668.00,0.00,50.00,39.20,1.41,-7.06,False,5,0,0,750.00,System,0.17,0.08,180.00,
1414323628607,1.00,0.00,100.00,868.00,395.00,34.00,1970.00,16.00,551.00,5668.00,0.00,50.00,39.24,1.42,-7.07,False,5,0,0,750.00,System,0.11,0.06,180.00,
1414323629101,-1.00,0.00,100.00,868.00,395.00,34.00,1970.00,16.00,551.00,5668.00,0.00,50.00,39.38,1.42,-7.03,False,5,0,0,750.00,System,0.11,0.06,180.00,
1414323629302,1.00,0.00,100.00,868.00,395.00,34.00,1970.00,16.00,551.00,5668.00,0.00,50.00,39.43,1.43,-7.01,False,5,0,0,750.00,System,0.17,0.08,180.00,
1414323629471,1.00,0.00,100.00,868.00,395.00,34.00,1970.00,16.00,551.00,5668.00,0.00,50.00,39.48,1.44,-7.02,False,5,0,0,750.00,System,0.11,0.05,180.00,
1414323629650,-1.00,0.00,100.00,868.00,395.00,34.00,1970.00,16.00,551.00,5668.00,0.00,50.00,39.53,1.46,-7.03,False,5,0,0,750.00,System,0.11,0.05,180.00,
1414323629807,-1.00,0.00,100.00,868.00,395.00,34.00,1970.00,16.00,551.00,5668.00,0.00,50.00,39.59,1.46,-7.04,False,5,0,0,750.00,System,0.11,0.05,180.00,
1414323629981,-1.00,0.00,100.00,868.00,395.00,34.00,1970.00,16.00,551.00,5668.00,0.00,50.00,39.64,1.46,-7.02,False,5,0,0,750.00,System,0.17,0.08,180.00,
1414323630205,-1.00,0.00,100.00,868.00,395.00,34.00,1970.00,16.00,551.00,5668.00,0.00,50.00,39.67,1.45,-7.03,False,5,0,0,750.00,System,0.17,0.08,180.00,
1414323630567,1.00,0.00,100.00,868.00,395.00,34.00,1970.00,16.00,551.00,5668.00,0.00,50.00,39.80,1.50,-7.04,False,5,0,0,750.00,System,0.11,0.05,180.00,
1414323630750,-1.00,0.00,100.00,868.00,395.00,34.00,1970.00,16.00,551.00,5668.00,0.00,50.00,39.83,1.49,-7.03,False,6,0,0,750.00,System,0.20,0.10,180.00,
1414323630890,1.00,0.00,100.00,868.00,395.00,34.00,1970.00,16.00,551.00,5668.00,0.00,50.00,39.90,1.47,-7.04,False,5,0,0,750.00,System,0.17,0.08,180.00,
1414323631213,-1.00,0.00,100.00,868.00,395.00,34.00,1970.00,16.00,551.00,5668.00,0.00,50.00,39.98,1.45,-7.05,False,5,0,0,750.00,System,0.17,0.08,180.00,
1414323631569,1.00,0.00,100.00,868.00,395.00,34.00,1970.00,16.00,551.00,5668.00,0.00,50.00,40.07,1.44,-7.04,False,5,0,0,750.00,System,0.11,0.06,180.00,
1414323632025,1.00,0.00,100.00,868.00,395.00,34.00,1970.00,16.00,551.00,5668.00,0.00,50.00,40.24,1.47,-7.05,False,6,0,0,750.00,System,0.20,0.10,180.00,
1414323632369,-1.00,0.00,100.00,868.00,395.00,34.00,1970.00,16.00,551.00,5668.00,0.00,50.00,40.34,1.46,-7.06,False,5,0,0,750.00,System,0.11,0.06,180.00,
1414323633130,-1.00,0.00,100.00,868.00,395.00,34.00,1970.00,16.00,551.00,5668.00,0.00,50.00,40.53,1.44,-7.05,False,5,0,0,750.00,System,0.17,0.08,180.00,
1414323633311,1.00,0.00,100.00,868.00,395.00,34.00,1970.00,16.00,551.00,5668.00,0.00,50.00,40.57,1.44,-7.06,False,6,0,0,750.00,System,0.20,0.10,180.00,
1414323633872,1.00,0.00,100.00,868.00,395.00,34.00,1970.00,16.00,551.00,5668.00,0.00,50.00,40.69,1.45,-7.08,False,5,0,0,750.00,System,0.11,0.06,180.00,
1414323634179,-1.00,0.00,100.00,868.00,395.00,34.00,1970.00,16.00,551.00,5668.00,0.00,50.00,40.82,1.48,-7.06,False,5,0,0,750.00,System,0.17,0.08,180.00,
1414323634334,1.00,0.00,100.00,868.00,395.00,34.00,1970.00,16.00,551.00,5668.00,0.00,50.00,40.86,1.49,-7.05,False,5,0,0,750.00,System,0.17,0.08,180.00,
1414323634518,1.00,0.00,100.00,868.00,395.00,34.00,1970.00,16.00,551.00,5668.00,0.00,50.00,40.91,1.49,-7.04,False,5,0,0,750.00,System,0.11,0.06,180.00,
1414323634809,-1.00,0.00,100.00,868.00,395.00,34.00,1970.00,16.00,551.00,5668.00,0.00,50.00,41.02,1.49,-7.03,False,5,0,0,750.00,System,0.11,0.05,180.00,
1414323634981,1.00,0.00,100.00,868.00,395.00,34.00,1970.00,16.00,551.00,5668.00,0.00,50.00,41.06,1.47,-7.04,False,5,0,0,750.00,System,0.11,0.05,180.00,
1414323635137,-1.00,0.00,100.00,868.00,395.00,34.00,1970.00,16.00,551.00,5668.00,0.00,50.00,41.11,1.48,-7.05,False,6,0,0,750.00,System,0.13,0.07,180.00,
1414323635467,-1.00,0.00,100.00,868.00,395.00,34.00,1970.00,16.00,551.00,5668.00,0.00,50.00,41.20,1.47,-7.03,False,6,0,0,750.00,System,0.20,0.10,180.00,
1414323635604,-1.00,0.00,100.00,868.00,395.00,34.00,1970.00,16.00,551.00,5668.00,0.00,50.00,41.26,1.48,-7.04,False,5,0,0,750.00,System,0.11,0.05,180.00,
1414323635755,1.00,0.00,100.00,868.00,395.00,34.00,1970.00,16.00,551.00,5668.00,0.00,50.00,41.30,1.48,-7.05,False,5,0,0,750.00,System,0.11,0.06,180.00,
1414323635909,-1.00,0.00,100.00,868.00,395.00,34.00,1970.00,16.00,551.00,5668.00,0.00,50.00,41.34,1.46,-7.03,False,5,0,0,750.00,System,0.17,0.08,180.00,
1414323636271,-1.00,0.00,100.00,868.00,395.00,34.00,1970.00,16.00,551.00,5668.00,0.00,50.00,41.44,1.46,-7.02,False,5,0,0,750.00,System,0.11,0.05,180.00,
1414323636430,-1.00,0.00,100.00,868.00,395.00,34.00,1970.00,16.00,551.00,5668.00,0.00,50.00,41.47,1.46,-7.03,False,5,0,0,750.00,System,0.17,0.08,180.00,
1414323636914,-1.00,0.00,100.00,868.00,395.00,34.00,1970.00,16.00,551.00,5668.00,0.00,50.00,41.62,1.48,-7.04,False,5,0,0,750.00,System,0.17,0.08,180.00,
1414323637083,1.00,0.00,100.00,868.00,395.00,34.00,1970.00,16.00,551.00,5668.00,0.00,50.00,41.65,1.47,-7.05,False,5,0,0,750.00,System,0.11,0.05,180.00,
1414323637407,-1.00,0.00,100.00,868.00,395.00,34.00,1970.00,16.00,551.00,5668.00,0.00,50.00,41.73,1.46,-7.04,False,5,0,0,750.00,System,0.11,0.06,180.00,
1414323637558,-1.00,0.00,100.00,868.00,395.00,34.00,1970.00,16.00,551.00,5668.00,0.00,50.00,41.77,1.46,-7.02,False,6,0,0,750.00,System,0.20,0.10,180.00,
1414323638089,1.00,0.00,100.00,868.00,395.00,34.00,1970.00,16.00,551.00,5668.00,0.00,50.00,41.91,1.47,-7.01,False,5,0,0,750.00,System,0.17,0.08,180.00,
1414323638419,-1.00,0.00,100.00,868.00,395.00,34.00,1970.00,16.00,551.00,5668.00,0.00,50.00,42.03,1.48,-7.02,False,5,0,0,750.00,System,0.17,0.08,180.00,
1414323638556,1.00,0.00,100.00,868.00,395.00,34.00,1970.00,16.00,551.00,5668.00,0.00,50.00,42.08,1.46,-7.01,False,6,0,0,750.00,System,0.20,0.10,180.00,
1414323638873,-1.00,0.00,100.00,868.00,395.00,34.00,1970.00,16.00,551.00,5668.00,0.00,50.00,42.15,1.46,-7.03,False,5,0,0,750.00,System,0.11,0.05,180.00,
1414323639024,-1.00,0.00,100.00,868.00,395.00,34.00,1970.00,16.00,551.00,5668.00,0.00,50.00,42.20,1.47,-7.02,False,6,0,0,750.00,System,0.13,0.07,180.00,
1414323639205,-1.00,0.00,100.00,868.00,395.00,34.00,1970.00,16.00,551.00,5668.00,0.00,50.00,42.24,1.48,-7.01,False,6,0,0,750.00,System,0.20,0.10,180.00,
1414323639355,1.00,0.00,100.00,868.00,395.00,34.00,1970.00,16.00,551.00,5668.00,0.00,50.00,42.29,1.47,-7.02,False,5,0,0,750.00,System,0.11,0.05,180.00,
1414323639664,-1.00,0.00,100.00,868.00,395.00,34.00,1970.00,16.00,551.00,5668.00,0.00,50.00,42.38,1.48,-7.04,False,5,0,0,750.00,System,0.11,0.05,180.00,
1414323640130,-1.00,0.00,100.00,868.00,395.00,34.00,1970.00,16.00,551.00,5668.00,0.00,50.00,42.54,1.46,-7.03,False,5,0,0,750.00,System,0.11,0.05,180.00,
1414323640358,-1.00,0.00,100.00,868.00,395.00,34.00,1970.00,16.00,551.00,5668.00,0.00,50.00,42.58,1.47,-7.02,False,6,0,0,750.00,System,0.20,0.10,180.00,
1414323640494,-1.00,0.00,100.00,868.00,395.00,34.00,1970.00,16.00,551.00,5668.00,0.00,50.00,42.62,1.47,-7.04,False,6,0,0,750.00,System,0.13,0.07,180.00,
1414323640806,-1.00,0.00,100.00,868.00,395.00,34.00,1970.00,16.00,551.00,5668.00,0.00,50.00,42.72,1.46,-7.03,False,5,0,0,750.00,System,0.11,0.05,180.00,
1414323641117,1.00,0.00,100.00,868.00,395.00,34.00,1970.00,16.00,551.00,5668.00,0.00,50.00,42.81,1.45,-7.05,False,5,0,0,750.00,System,0.11,0.05,180.00,
1414323641305,-1.00,0.00,100.00,868.00,395.00,34.00,1970.00,16.00,551.00,5668.00,0.00,50.00,42.87,1.45,-7.04,False,5,0,0,750.00,System,0.17,0.08,180.00,
1414323641440,-1.00,0.00,100.00,868.00,395.00,34.00,1970.00,16.00,551.00,5668.00,0.00,50.00,42.91,1.45,-7.03,False,5,0,0,750.00,System,0.17,0.08,180.00,
1414323641756,1.00,0.00,100.00,868.00,395.00,34.00,1970.00,16.00,551.00,5668.00,0.00,50.00,43.04,1.46,-7.04,False,5,0,0,750.00,System,0.17,0.08,180.00,
1414323642068,1.00,0.00,100.00,868.00,395.00,34.00,1970.00,16.00,551.00,5668.00,0.00,50.00,43.12,1.45,-7.03,False,5,0,0,750.00,System,0.11,0.05,180.00,
1414323642382,1.00,0.00,100.00,868.00,395.00,34.00,1970.00,16.00,551.00,5668.00,0.00,50.00,43.21,1.46,-7.04,False,5,0,0,750.00,System,0.11,0.05,180.00,
1414323642535,-1.00,0.00,100.00,868.00,395.00,34.00,1970.00,16.00,551.00,5668.00,0.00,50.00,43.26,1.44,-7.05,False,7,0,0,750.00,System,0.23,0.12,180.00,
1414323642693,1.00,0.00,100.00,868.00,395.00,34.00,1970.00,16.00,551.00,5668.00,0.00,50.00,43.31,1.45,-7.04,False,5,0,0,750.00,System,0.11,0.06,180.00,
1414323642854,-1.00,0.00,100.00,868.00,395.00,34.00,1970.00,16.00,551.00,5668.00,0.00,50.00,43.36,1.44,-7.02,False,5,0,0,750.00,System,0.17,0.08,180.00,
1414323643009,-1.00,0.00,100.00,868.00,395.00,34.00,1970.00,16.00,551.00,5668.00,0.00,50.00,43.39,1.44,-7.04,False,5,0,0,750.00,System,0.11,0.05,180.00,
1414323643164,-1.00,0.00,100.00,868.00,395.00,34.00,1970.00,16.00,551.00,5668.00,0.00,50.00,43.43,1.45,-7.05,False,6,0,0,750.00,System,0.20,0.10,180.00,
1414323643340,1.00,0.00,100.00,868.00,395.00,34.00,1970.00,16.00,551.00,5668.00,0.00,50.00,43.47,1.46,-7.04,False,6,0,0,750.00,System,0.13,0.07,180.00,
1414323644267,1.00,0.00,100.00,868.00,395.00,34.00,1970.00,16.00,551.00,5668.00,0.00,50.00,43.70,1.45,-7.05,False,6,0,0,750.00,System,0.13,0.07,180.00,
1414323644418,-1.00,0.00,100.00,868.00,395.00,34.00,1970.00,16.00,551.00,5668.00,0.00,50.00,43.78,1.45,-7.04,False,6,0,0,750.00,System,0.13,0.07,180.00,
1414323644751,1.00,0.00,100.00,868.00,395.00,34.00,1970.00,16.00,551.00,5668.00,0.00,50.00,43.86,1.45,-7.03,False,5,0,0,750.00,System,0.11,0.05,180.00,
1414323644920,-1.00,0.00,100.00,868.00,395.00,34.00,1970.00,16.00,551.00,5668.00,0.00,50.00,43.91,1.45,-7.02,False,6,0,0,750.00,System,0.20,0.10,180.00,
1414323645093,1.00,0.00,100.00,868.00,395.00,34.00,1970.00,16.00,551.00,5668.00,0.00,50.00,43.96,1.46,-7.03,False,5,0,0,750.00,System,0.17,0.08,180.00,
1414323645246,-1.00,0.00,100.00,868.00,395.00,34.00,1970.00,16.00,551.00,5668.00,0.00,50.00,44.02,1.47,-7.02,False,6,0,0,750.00,System,0.20,0.10,180.00,
1414323645413,1.00,0.00,100.00,868.00,395.00,34.00,1970.00,16.00,551.00,5668.00,0.00,50.00,44.06,1.45,-7.03,False,6,0,0,750.00,System,0.20,0.10,180.00,
1414323645905,1.00,0.00,100.00,868.00,395.00,34.00,1970.00,16.00,551.00,5668.00,0.00,50.00,44.22,1.49,-7.01,False,5,0,0,750.00,System,0.11,0.05,180.00,
1414323646562,1.00,0.00,100.00,868.00,395.00,34.00,1970.00,16.00,551.00,5668.00,0.00,50.00,44.42,1.52,-7.00,False,5,0,0,750.00,System,0.11,0.05,180.00,
1414323646732,1.00,0.00,100.00,868.00,395.00,34.00,1970.00,16.00,551.00,5668.00,0.00,50.00,44.46,1.52,-7.02,False,5,0,0,750.00,System,0.17,0.08,180.00,
1414323646900,-1.00,0.00,100.00,868.00,395.00,34.00,1970.00,16.00,551.00,5668.00,0.00,50.00,44.49,1.52,-7.03,False,6,0,0,750.00,System,0.20,0.10,180.00,
1414323647057,-1.00,0.00,100.00,868.00,395.00,34.00,1970.00,16.00,551.00,5668.00,0.00,50.00,44.53,1.52,-7.02,False,5,0,0,750.00,System,0.17,0.08,180.00,
1414323647244,-1.00,0.00,100.00,868.00,395.00,34.00,1970.00,16.00,551.00,5668.00,0.00,50.00,44.56,1.52,-7.03,False,6,0,0,750.00,System,0.20,0.10,180.00,
1414323647382,-1.00,0.00,100.00,868.00,395.00,34.00,1970.00,16.00,551.00,5668.00,0.00,50.00,44.60,1.52,-7.04,False,5,0,0,750.00,System,0.11,0.05,180.00,
1414323647715,-1.00,0.00,100.00,868.00,395.00,34.00,1970.00,16.00,551.00,5668.00,0.00,50.00,44.68,1.49,-7.05,False,5,0,0,750.00,System,0.17,0.08,180.00,
1414323648006,1.00,0.00,100.00,868.00,395.00,34.00,1970.00,16.00,551.00,5668.00,0.00,50.00,44.76,1.47,-7.06,False,5,0,0,750.00,System,0.11,0.06,180.00,
1414323648184,1.00,0.00,100.00,868.00,395.00,34.00,1970.00,16.00,551.00,5668.00,0.00,50.00,44.81,1.47,-7.07,False,8,0,0,750.00,System,0.18,0.09,180.00,
1414323648354,-1.00,0.00,100.00,868.00,395.00,34.00,1970.00,16.00,551.00,5668.00,0.00,50.00,44.85,1.47,-7.06,False,5,0,0,750.00,System,0.11,0.06,180.00,
1414323648502,-1.00,0.00,100.00,868.00,395.00,34.00,1970.00,16.00,551.00,5668.00,0.00,50.00,44.89,1.45,-7.07,False,5,0,0,750.00,System,0.11,0.06,180.00,
1414323648821,-1.00,0.00,100.00,868.00,395.00,34.00,1970.00,16.00,551.00,5668.00,0.00,50.00,44.99,1.46,-7.05,False,5,0,0,750.00,System,0.17,0.08,180.00,
1414323649448,1.00,0.00,100.00,868.00,395.00,34.00,1970.00,16.00,551.00,5668.00,0.00,50.00,45.17,1.46,-7.04,False,5,0,0,750.00,System,0.11,0.06,180.00,
1414323649857,1.00,0.00,100.00,868.00,395.00,34.00,1970.00,16.00,551.00,5668.00,0.00,50.00,45.26,1.47,-7.06,False,5,0,0,750.00,System,0.17,0.08,180.00,
1414323650492,1.00,0.00,100.00,868.00,395.00,34.00,1970.00,16.00,551.00,5668.00,0.00,50.00,45.42,1.48,-7.05,False,5,0,0,750.00,System,0.11,0.06,180.00,
1414323650635,-1.00,0.00,100.00,868.00,395.00,34.00,1970.00,16.00,551.00,5668.00,0.00,50.00,45.46,1.48,-7.06,False,6,0,0,750.00,System,0.20,0.10,180.00,
1414323650789,-1.00,0.00,100.00,868.00,395.00,34.00,1970.00,16.00,551.00,5668.00,0.00,50.00,45.50,1.47,-7.08,False,6,0,0,750.00,System,0.20,0.10,180.00,
1414323650950,1.00,0.00,100.00,868.00,395.00,34.00,1970.00,16.00,551.00,5668.00,0.00,50.00,45.55,1.48,-7.07,False,6,0,0,750.00,System,0.13,0.07,180.00,
1414323651106,-1.00,0.00,100.00,868.00,395.00,34.00,1970.00,16.00,551.00,5668.00,0.00,50.00,45.61,1.47,-7.08,False,5,0,0,750.00,System,0.17,0.08,180.00,
1414323651295,-1.00,0.00,100.00,868.00,395.00,34.00,1970.00,16.00,551.00,5668.00,0.00,50.00,45.64,1.48,-7.06,False,5,0,0,750.00,System,0.11,0.06,180.00,
1414323651754,-1.00,0.00,100.00,868.00,395.00,34.00,1970.00,16.00,551.00,5668.00,0.00,50.00,45.78,1.47,-7.09,False,6,0,0,750.00,System,0.13,0.07,180.00,
1414323651906,1.00,0.00,100.00,868.00,395.00,34.00,1970.00,16.00,551.00,5668.00,0.00,50.00,45.83,1.47,-7.10,False,5,0,0,750.00,System,0.11,0.06,180.00,
1414323652116,1.00,0.00,100.00,868.00,395.00,34.00,1970.00,16.00,551.00,5668.00,0.00,50.00,45.87,1.47,-7.09,False,5,0,0,750.00,System,0.11,0.06,180.00,
1414323652252,1.00,0.00,100.00,868.00,395.00,34.00,1970.00,16.00,551.00,5668.00,0.00,50.00,45.91,1.48,-7.08,False,4,0,0,750.00,System,0.14,0.07,180.00,
1414323652716,-1.00,0.00,100.00,868.00,395.00,34.00,1970.00,16.00,551.00,5668.00,0.00,50.00,46.07,1.46,-7.09,False,5,0,0,750.00,System,0.17,0.09,180.00,
1414323653204,-1.00,0.00,100.00,868.00,395.00,34.00,1970.00,16.00,551.00,5668.00,0.00,50.00,46.19,1.49,-7.08,False,5,0,0,750.00,System,0.17,0.09,180.00,
1414323653359,1.00,0.00,100.00,868.00,395.00,34.00,1970.00,16.00,551.00,5668.00,0.00,50.00,46.24,1.48,-7.09,False,5,0,0,750.00,System,0.11,0.06,180.00,
1414323653564,-1.00,0.00,100.00,868.00,395.00,34.00,1970.00,16.00,551.00,5668.00,0.00,50.00,46.29,1.46,-7.10,False,5,0,0,750.00,System,0.17,0.09,180.00,
1414323653723,-1.00,0.00,100.00,868.00,395.00,34.00,1970.00,16.00,551.00,5668.00,0.00,50.00,46.33,1.47,-7.09,False,5,0,0,750.00,System,0.11,0.06,180.00,
1414323653871,-1.00,0.00,100.00,868.00,395.00,34.00,1970.00,16.00,551.00,5668.00,0.00,50.00,46.39,1.48,-7.07,False,5,0,0,750.00,System,0.17,0.09,180.00,
1414323654043,1.00,0.00,100.00,868.00,395.00,34.00,1970.00,16.00,551.00,5668.00,0.00,50.00,46.45,1.49,-7.08,False,6,0,0,750.00,System,0.13,0.07,180.00,
1414323654236,1.00,0.00,100.00,868.00,395.00,34.00,1970.00,16.00,551.00,5668.00,0.00,50.00,46.51,1.50,-7.07,False,7,0,0,750.00,System,0.24,0.12,180.00,
1414323654367,1.00,0.00,100.00,868.00,395.00,34.00,1970.00,16.00,551.00,5668.00,0.00,50.00,46.55,1.51,-7.04,False,5,0,0,750.00,System,0.17,0.08,180.00,
1414323654538,-1.00,0.00,100.00,868.00,395.00,34.00,1970.00,16.00,551.00,5668.00,0.00,50.00,46.60,1.50,-7.03,False,6,0,0,750.00,System,0.20,0.10,180.00,
1414323654678,1.00,0.00,100.00,868.00,395.00,34.00,1970.00,16.00,551.00,5668.00,0.00,50.00,46.63,1.50,-7.04,False,5,0,0,750.00,System,0.11,0.05,180.00,
1414323655055,-1.00,0.00,100.00,868.00,395.00,34.00,1970.00,16.00,551.00,5668.00,0.00,50.00,46.71,1.50,-7.05,False,5,0,0,750.00,System,0.11,0.06,180.00,
1414323655210,1.00,0.00,100.00,868.00,395.00,34.00,1970.00,16.00,551.00,5668.00,0.00,50.00,46.75,1.49,-7.06,False,5,0,0,750.00,System,0.17,0.08,180.00,
1414323655366,-1.00,0.00,100.00,868.00,395.00,34.00,1970.00,16.00,551.00,5668.00,0.00,50.00,46.79,1.49,-7.07,False,5,0,0,750.00,System,0.17,0.08,180.00,
1414323655532,1.00,0.00,100.00,868.00,395.00,34.00,1970.00,16.00,551.00,5668.00,0.00,50.00,46.85,1.49,-7.05,False,6,0,0,750.00,System,0.13,0.07,180.00,
1414323656067,1.00,0.00,100.00,868.00,395.00,34.00,1970.00,16.00,551.00,5668.00,0.00,50.00,46.97,1.48,-7.07,False,5,0,0,750.00,System,0.11,0.06,180.00,
1414323656371,1.00,0.00,100.00,868.00,395.00,34.00,1970.00,16.00,551.00,5668.00,0.00,50.00,47.08,1.50,-7.08,False,5,0,0,750.00,System,0.17,0.08,180.00,
1414323656534,1.00,0.00,100.00,868.00,395.00,34.00,1970.00,16.00,551.00,5668.00,0.00,50.00,47.12,1.50,-7.07,False,6,0,0,750.00,System,0.13,0.07,180.00,
1414323656832,1.00,0.00,100.00,868.00,395.00,34.00,1970.00,16.00,551.00,5668.00,0.00,50.00,47.20,1.49,-7.08,False,6,0,0,750.00,System,0.13,0.07,180.00,
1414323656995,1.00,0.00,100.00,868.00,395.00,34.00,1970.00,16.00,551.00,5668.00,0.00,50.00,47.24,1.49,-7.06,False,5,0,0,750.00,System,0.11,0.06,180.00,
1414323657144,1.00,0.00,100.00,868.00,395.00,34.00,1970.00,16.00,551.00,5668.00,0.00,50.00,47.29,1.50,-7.08,False,5,0,0,750.00,System,0.11,0.06,180.00,
1414323657458,-1.00,0.00,100.00,868.00,395.00,34.00,1970.00,16.00,551.00,5668.00,0.00,50.00,47.37,1.50,-7.07,False,6,0,0,750.00,System,0.20,0.10,180.00,
1414323657932,1.00,0.00,100.00,868.00,395.00,34.00,1970.00,16.00,551.00,5668.00,0.00,50.00,47.49,1.51,-7.06,False,5,0,0,750.00,System,0.11,0.06,180.00,
1414323658115,1.00,0.00,100.00,868.00,395.00,34.00,1970.00,16.00,551.00,5668.00,0.00,50.00,47.53,1.51,-7.05,False,5,0,0,750.00,System,0.11,0.06,180.00,
1414323658249,-1.00,0.00,100.00,868.00,395.00,34.00,1970.00,16.00,551.00,5668.00,0.00,50.00,47.58,1.50,-7.04,False,5,0,0,750.00,System,0.17,0.08,180.00,
1414323658430,-1.00,0.00,100.00,868.00,395.00,34.00,1970.00,16.00,551.00,5668.00,0.00,50.00,47.64,1.49,-7.03,False,5,0,0,750.00,System,0.11,0.05,180.00,
1414323658565,-1.00,0.00,100.00,868.00,395.00,34.00,1970.00,16.00,551.00,5668.00,0.00,50.00,47.67,1.49,-7.04,False,5,0,0,750.00,System,0.17,0.08,180.00,
1414323658717,1.00,0.00,100.00,868.00,395.00,34.00,1970.00,16.00,551.00,5668.00,0.00,50.00,47.71,1.50,-7.02,False,5,0,0,750.00,System,0.17,0.08,180.00,
1414323658928,1.00,0.00,100.00,868.00,395.00,34.00,1970.00,16.00,551.00,5668.00,0.00,50.00,47.75,1.50,-7.01,False,5,0,0,750.00,System,0.17,0.08,180.00,
1414323659077,1.00,0.00,100.00,868.00,395.00,34.00,1970.00,16.00,551.00,5668.00,0.00,50.00,47.79,1.50,-7.03,False,5,0,0,750.00,System,0.17,0.08,180.00,
1414323659256,-1.00,0.00,100.00,868.00,395.00,34.00,1970.00,16.00,551.00,5668.00,0.00,50.00,47.87,1.48,-7.02,False,5,0,0,750.00,System,0.11,0.05,180.00,
1414323659431,-1.00,0.00,100.00,868.00,395.00,34.00,1970.00,16.00,551.00,5668.00,0.00,50.00,47.91,1.48,-7.03,False,6,0,0,750.00,System,0.13,0.07,180.00,
1414323659593,1.00,0.00,100.00,868.00,395.00,34.00,1970.00,16.00,551.00,5668.00,0.00,50.00,47.95,1.48,-7.02,False,5,0,0,750.00,System,0.17,0.08,180.00,
1414323660208,-1.00,0.00,100.00,868.00,395.00,34.00,1970.00,16.00,551.00,5668.00,0.00,50.00,48.13,1.45,-7.01,False,5,0,0,750.00,System,0.11,0.05,180.00,
1414323660400,-1.00,0.00,100.00,868.00,395.00,34.00,1970.00,16.00,551.00,5668.00,0.00,50.00,48.16,1.46,-7.02,False,5,0,0,750.00,System,0.17,0.08,180.00,
1414323660536,-1.00,0.00,100.00,868.00,395.00,34.00,1970.00,16.00,551.00,5668.00,0.00,50.00,48.21,1.46,-7.03,False,5,0,0,750.00,System,0.11,0.05,180.00,
1414323660697,-1.00,0.00,100.00,868.00,395.00,34.00,1970.00,16.00,551.00,5668.00,0.00,50.00,48.25,1.44,-7.02,False,6,0,0,750.00,System,0.20,0.10,180.00,
1414323660870,1.00,0.00,100.00,868.00,395.00,34.00,1970.00,16.00,551.00,5668.00,0.00,50.00,48.30,1.44,-7.04,False,6,0,0,750.00,System,0.13,0.07,180.00,
1414323661809,1.00,0.00,100.00,868.00,395.00,34.00,1970.00,16.00,551.00,5668.00,0.00,50.00,48.55,1.42,-7.05,False,5,0,0,750.00,System,0.17,0.08,180.00,
1414323662123,-1.00,0.00,100.00,868.00,395.00,34.00,1970.00,16.00,551.00,5668.00,0.00,50.00,48.64,1.43,-7.06,False,7,0,0,750.00,System,0.15,0.08,180.00,
1414323662620,1.00,0.00,100.00,868.00,395.00,34.00,1970.00,16.00,551.00,5668.00,0.00,50.00,48.77,1.42,-7.07,False,5,0,0,750.00,System,0.17,0.08,180.00,
1414323662788,-1.00,0.00,100.00,868.00,395.00,34.00,1970.00,16.00,551.00,5668.00,0.00,50.00,48.83,1.42,-7.16,False,5,0,0,750.00,System,0.17,0.08,180.00,
1414323662944,-1.00,-1.00,100.00,868.00,395.00,34.00,1970.00,16.00,551.00,5668.00,0.00,50.00,48.01,1.42,-3.62,False,6,0,0,750.00,System,0.11,0.11,180.00,
1414323663101,1.00,0.00,100.00,868.00,395.00,34.00,1970.00,16.00,551.00,5668.00,0.00,50.00,52.72,2.11,3.86,False,5,0,0,750.00,System,0.03,0.02,180.00,
1414323663255,1.00,0.00,-90.77,868.00,395.00,34.00,1970.00,16.00,551.00,5668.00,0.00,50.00,60.51,9.21,11.99,False,5,0,0,750.00,System,0.17,0.09,180.00,
1414323663470,-1.00,0.00,-100.00,868.00,395.00,34.00,1970.00,16.00,551.00,5668.00,0.00,50.00,70.48,11.83,16.43,False,6,0,0,750.00,System,1.01,0.51,180.00,
1414323663603,-1.00,0.00,-100.00,868.00,395.00,34.00,1970.00,16.00,551.00,5668.00,0.00,50.00,81.86,9.97,15.05,False,6,0,0,750.00,System,2.10,1.05,180.00,
1414323663759,1.00,0.00,-88.85,868.00,395.00,34.00,1970.00,16.00,551.00,5668.00,0.00,50.00,95.90,9.51,14.67,False,5,0,0,750.00,System,1.34,0.67,180.00,
1414323663922,-1.00,0.00,-100.00,868.00,395.00,34.00,1970.00,16.00,551.00,5668.00,0.00,50.00,109.42,9.03,13.81,False,6,0,0,750.00,System,1.51,0.76,180.00,
1414323664094,1.00,0.00,-48.12,868.00,395.00,34.00,1970.00,16.00,551.00,5668.00,0.00,50.00,117.11,6.31,11.77,False,5,0,0,750.00,System,1.32,0.66,180.00,
1414323664270,-1.00,0.00,-29.48,868.00,395.00,34.00,1970.00,16.00,551.00,5668.00,0.00,50.00,124.80,2.98,8.23,False,5,0,0,750.00,System,0.86,0.43,180.00,
1414323664413,-1.00,0.00,34.32,868.00,395.00,34.00,1970.00,16.00,551.00,5668.00,0.00,50.00,129.59,3.71,5.71,False,5,0,0,750.00,System,0.57,0.28,180.00,
1414323664562,-1.00,0.00,67.88,868.00,395.00,34.00,1970.00,16.00,551.00,5668.00,0.00,50.00,132.47,3.30,4.69,False,6,0,0,750.00,System,0.30,0.15,180.00,
1414323664720,1.00,0.00,52.22,868.00,395.00,34.00,1970.00,16.00,551.00,5668.00,0.00,50.00,132.75,-0.24,5.94,False,5,0,0,750.00,System,0.25,0.12,180.00,
1414323664885,-1.00,0.00,49.61,868.00,395.00,34.00,1970.00,16.00,551.00,5668.00,0.00,50.00,133.62,-2.34,1.52,False,5,0,0,750.00,System,0.26,0.13,180.00,
1414323665042,-1.00,0.00,100.00,868.00,395.00,34.00,1970.00,16.00,551.00,5668.00,0.00,50.00,134.70,-2.08,-4.15,False,5,0,0,750.00,System,0.08,0.04,180.00,
1414323665222,-1.00,0.00,100.00,868.00,395.00,34.00,1970.00,16.00,551.00,5668.00,0.00,50.00,133.24,-4.69,-5.37,False,6,0,0,750.00,System,0.04,0.02,180.00,
1414323665356,1.00,0.00,100.00,868.00,395.00,34.00,1970.00,16.00,551.00,5668.00,0.00,50.00,135.22,-7.35,-3.14,False,5,0,0,750.00,System,0.09,0.04,180.00,
1414323665510,-1.00,0.00,100.00,868.00,395.00,34.00,1970.00,16.00,551.00,5668.00,0.00,50.00,137.62,-6.24,-0.91,False,5,0,0,750.00,System,0.02,0.01,180.00,
1414323665667,-1.00,0.00,96.80,868.00,395.00,34.00,1970.00,16.00,551.00,5668.00,0.00,50.00,137.22,-3.91,-0.60,False,5,0,0,750.00,System,0.00,0.00,180.00,
1414323665833,-1.00,0.00,100.00,868.00,395.00,34.00,1970.00,16.00,551.00,5668.00,0.00,50.00,136.64,-2.32,-2.31,False,5,0,0,750.00,System,0.00,0.00,180.00,
1414323665979,1.00,0.00,100.00,868.00,395.00,34.00,1970.00,16.00,551.00,5668.00,0.00,50.00,136.52,-2.02,-0.36,False,6,0,0,750.00,System,0.00,0.00,180.00,
1414323666143,1.00,0.00,92.56,868.00,395.00,34.00,1970.00,16.00,551.00,5668.00,0.00,50.00,137.64,-2.11,0.72,False,5,0,0,750.00,System,0.02,0.01,180.00,
1414323666324,-1.00,0.00,95.86,868.00,395.00,34.00,1970.00,16.00,551.00,5668.00,0.00,50.00,138.50,-0.63,1.79,False,5,0,0,750.00,System,0.02,0.01,180.00,
1414323666475,-1.00,0.00,88.93,868.00,395.00,34.00,1970.00,16.00,551.00,5668.00,0.00,50.00,139.93,-0.13,1.73,False,5,0,0,750.00,System,0.05,0.02,180.00,
1414323666654,-1.00,0.00,92.69,868.00,395.00,34.00,1970.00,16.00,551.00,5668.00,0.00,50.00,141.31,0.07,2.41,False,6,0,0,750.00,System,0.05,0.03,180.00,
1414323666790,-1.00,0.00,72.39,868.00,395.00,34.00,1970.00,16.00,551.00,5668.00,0.00,50.00,141.56,0.09,2.38,False,5,0,0,750.00,System,0.11,0.06,180.00,
1414323666948,1.00,0.00,92.47,868.00,395.00,34.00,1970.00,16.00,551.00,5668.00,0.00,50.00,141.73,0.16,1.23,False,6,0,0,750.00,System,0.08,0.04,180.00,
1414323667125,-1.00,0.00,95.21,868.00,395.00,34.00,1970.00,16.00,551.00,5668.00,0.00,50.00,141.75,0.23,0.23,False,5,0,0,750.00,System,0.07,0.03,180.00,
1414323667257,1.00,0.00,100.00,868.00,395.00,34.00,1970.00,16.00,551.00,5668.00,0.00,50.00,141.61,0.29,0.72,False,5,0,0,750.00,System,0.03,0.02,180.00,
1414323667411,0.00,0.00,98.36,868.00,395.00,34.00,1970.00,16.00,551.00,5668.00,0.00,50.00,141.40,0.28,1.84,False,5,0,0,750.00,System,0.02,0.00,180.00,
1414323667568,1.00,0.00,88.43,868.00,395.00,34.00,1970.00,16.00,551.00,5668.00,0.00,50.00,141.56,0.32,2.02,False,5,0,0,750.00,System,0.05,0.02,180.00,
1414323667728,-1.00,0.00,93.78,868.00,395.00,34.00,1970.00,16.00,551.00,5668.00,0.00,50.00,141.64,0.35,1.51,False,5,0,0,750.00,System,0.05,0.03,180.00,
1414323667890,-1.00,0.00,99.50,868.00,395.00,34.00,1970.00,16.00,551.00,5668.00,0.00,50.00,141.68,0.42,0.68,False,6,0,0,750.00,System,0.05,0.02,180.00,
1414323668060,-1.00,0.00,98.77,868.00,395.00,34.00,1970.00,16.00,551.00,5668.00,0.00,50.00,141.70,0.46,-0.05,False,5,0,0,750.00,System,0.02,0.01,180.00,
1414323668211,1.00,0.00,100.00,868.00,395.00,34.00,1970.00,16.00,551.00,5668.00,0.00,50.00,141.71,0.50,-0.55,False,5,0,0,750.00,System,0.03,0.01,180.00,
1414323668419,1.00,0.00,100.00,868.00,395.00,34.00,1970.00,16.00,551.00,5668.00,0.00,50.00,141.72,0.54,-0.45,False,5,0,0,750.00,System,0.02,0.01,180.00,
1414323668587,1.00,0.00,100.00,868.00,395.00,34.00,1970.00,16.00,551.00,5668.00,0.00,50.00,141.74,0.60,-0.02,False,5,0,0,750.00,System,0.00,0.00,180.00,
1414323668743,-1.00,0.00,100.00,868.00,395.00,34.00,1970.00,16.00,551.00,5668.00,0.00,50.00,141.84,0.63,-0.06,False,5,0,0,750.00,System,0.03,0.01,180.00,
1414323668906,1.00,0.00,100.00,868.00,395.00,34.00,1970.00,16.00,551.00,5668.00,0.00,50.00,141.88,0.67,-0.17,False,1,0,0,750.00,System,0.01,0.00,180.00,
1414323669075,1.00,0.00,100.00,868.00,395.00,34.00,1970.00,16.00,551.00,5668.00,0.00,50.00,141.92,0.69,-0.20,False,1,0,0,750.00,System,0.00,0.00,180.00,
1414323669214,-1.00,0.00,100.00,868.00,395.00,34.00,1970.00,16.00,551.00,5668.00,0.00,50.00,141.99,0.74,-0.17,False,5,0,0,750.00,System,0.02,0.01,180.00,
1414323669373,1.00,0.00,100.00,868.00,395.00,34.00,1970.00,16.00,551.00,5668.00,0.00,50.00,142.00,0.75,-0.16,False,0,0,0,750.00,System,0.00,0.00,180.00,
1414323669546,1.00,0.00,100.00,868.00,395.00,34.00,1970.00,16.00,551.00,5668.00,0.00,50.00,142.04,0.79,-0.15,False,5,0,0,750.00,System,0.02,0.01,180.00,
1414323669718,1.00,0.00,100.00,868.00,395.00,34.00,1970.00,16.00,551.00,5668.00,0.00,50.00,142.09,0.82,-0.17,False,5,0,0,750.00,System,0.01,0.01,180.00,
1414323669857,1.00,0.00,100.00,868.00,395.00,34.00,1970.00,16.00,551.00,5668.00,0.00,50.00,142.13,0.83,-0.22,False,5,0,0,750.00,System,0.02,0.01,180.00,
1414323670026,-1.00,0.00,100.00,868.00,395.00,34.00,1970.00,16.00,551.00,5668.00,0.00,50.00,142.18,0.88,-0.26,False,1,0,0,750.00,System,0.00,0.00,180.00,
1414323670177,-1.00,0.00,100.00,868.00,395.00,34.00,1970.00,16.00,551.00,5668.00,0.00,50.00,142.21,0.88,-0.29,False,5,0,0,750.00,System,0.00,0.00,180.00,
1414323670352,-1.00,0.00,100.00,868.00,395.00,34.00,1970.00,16.00,551.00,5668.00,0.00,50.00,142.27,0.90,-0.28,False,5,0,0,750.00,System,0.01,0.00,180.00,
1414323670688,-1.00,0.00,100.00,868.00,395.00,34.00,1970.00,16.00,551.00,5668.00,0.00,50.00,142.34,0.92,-0.30,False,6,0,0,750.00,System,0.01,0.00,180.00,
1414323670825,-1.00,0.00,100.00,868.00,395.00,34.00,1970.00,16.00,551.00,5668.00,0.00,50.00,142.39,0.95,-0.27,False,6,0,0,750.00,System,0.01,0.00,180.00,
1414323671148,1.00,0.00,100.00,868.00,395.00,34.00,1970.00,16.00,551.00,5668.00,0.00,50.00,142.50,1.02,-0.30,False,5,0,0,750.00,System,0.00,0.00,180.00,
1414323671323,-1.00,0.00,100.00,868.00,395.00,34.00,1970.00,16.00,551.00,5668.00,0.00,50.00,142.54,1.04,-0.26,False,5,0,0,750.00,System,0.02,0.01,180.00,
1414323671479,-1.00,0.00,100.00,868.00,395.00,34.00,1970.00,16.00,551.00,5668.00,0.00,50.00,142.58,1.06,-0.24,False,5,0,0,750.00,System,0.01,0.00,180.00,
1414323671654,-1.00,0.00,100.00,868.00,395.00,34.00,1970.00,16.00,551.00,5668.00,0.00,50.00,142.63,1.08,-0.15,False,5,0,0,750.00,System,0.01,0.00,180.00,
1414323671809,-1.00,0.00,100.00,868.00,395.00,34.00,1970.00,16.00,551.00,5668.00,0.00,50.00,142.69,1.10,-0.13,False,1,0,0,750.00,System,0.00,0.00,180.00,
1414323671949,-1.00,0.00,100.00,868.00,395.00,34.00,1970.00,16.00,551.00,5668.00,0.00,50.00,142.74,1.11,-0.01,False,5,0,0,750.00,System,0.01,0.00,180.00,
1414323672105,1.00,0.00,100.00,868.00,395.00,34.00,1970.00,16.00,551.00,5668.00,0.00,50.00,142.78,1.13,0.14,False,5,0,0,750.00,System,0.02,0.01,180.00,
1414323672294,-1.00,0.00,100.00,868.00,395.00,34.00,1970.00,16.00,551.00,5668.00,0.00,50.00,142.81,1.12,0.38,False,1,0,0,750.00,System,0.00,0.00,180.00,
1414323672434,-1.00,0.00,100.00,868.00,395.00,34.00,1970.00,16.00,551.00,5668.00,0.00,50.00,142.87,1.13,0.33,False,5,0,0,750.00,System,0.04,0.02,180.00,
1414323672607,1.00,0.00,100.00,868.00,395.00,34.00,1970.00,16.00,551.00,5668.00,0.00,50.00,142.92,1.16,0.32,False,5,0,0,750.00,System,0.04,0.02,180.00,
1414323672744,-1.00,0.00,100.00,868.00,395.00,34.00,1970.00,16.00,551.00,5668.00,0.00,50.00,142.96,1.18,0.33,False,6,0,0,750.00,System,0.01,0.01,180.00,
1414323672945,-1.00,0.00,100.00,868.00,395.00,34.00,1970.00,16.00,551.00,5668.00,0.00,50.00,143.03,1.19,0.37,False,6,0,0,750.00,System,0.02,0.01,180.00,
1414323673144,1.00,0.00,100.00,868.00,395.00,34.00,1970.00,16.00,551.00,5668.00,0.00,50.00,143.08,1.20,0.27,False,5,0,0,750.00,System,0.01,0.01,180.00,
1414323673310,1.00,0.00,100.00,868.00,395.00,34.00,1970.00,16.00,551.00,5668.00,0.00,50.00,143.14,1.23,0.36,False,5,0,0,750.00,System,0.03,0.02,180.00,
1414323673467,-1.00,0.00,100.00,868.00,395.00,34.00,1970.00,16.00,551.00,5668.00,0.00,50.00,143.24,1.25,0.33,False,5,0,0,750.00,System,0.04,0.02,180.00,
1414323673638,-1.00,0.00,100.00,868.00,395.00,34.00,1970.00,16.00,551.00,5668.00,0.00,50.00,143.31,1.24,0.35,False,5,0,0,750.00,System,0.04,0.02,180.00,
1414323673772,-1.00,0.00,100.00,868.00,395.00,34.00,1970.00,16.00,551.00,5668.00,0.00,50.00,143.38,1.27,4.04,False,5,0,0,750.00,System,0.04,0.02,180.00,
1414323673933,1.00,7.00,-19.33,868.00,395.00,34.00,1970.00,16.00,551.00,5668.00,0.00,50.00,143.94,1.19,10.21,False,6,0,0,750.00,System,0.03,0.14,180.00,
1414323674141,-1.00,4.00,-100.00,868.00,395.00,34.00,1970.00,16.00,551.00,5668.00,0.00,50.00,146.22,0.79,9.23,False,5,0,0,750.00,System,0.04,0.09,180.00,
1414323674346,1.00,6.00,48.47,868.00,395.00,34.00,1970.00,16.00,551.00,5668.00,0.00,50.00,147.01,0.77,18.67,False,6,0,0,750.00,System,0.32,1.13,180.00,
1414323674489,1.00,-3.00,-100.00,868.00,395.00,34.00,1970.00,16.00,551.00,5668.00,0.00,50.00,151.59,-0.66,11.02,False,6,0,0,750.00,System,2.78,5.56,180.00,
1414323674645,-1.00,-5.00,-100.00,868.00,395.00,34.00,1970.00,16.00,551.00,5668.00,0.00,50.00,145.83,0.36,8.59,False,5,0,0,750.00,System,1.01,3.02,180.00,
1414323674830,1.00,2.00,7.44,868.00,395.00,34.00,1970.00,16.00,551.00,5668.00,0.00,50.00,146.10,0.47,10.55,False,6,0,0,750.00,System,0.70,1.05,180.00,
1414323674970,1.00,-3.00,-18.08,868.00,395.00,34.00,1970.00,16.00,551.00,5668.00,0.00,50.00,148.01,0.43,11.04,False,5,0,0,750.00,System,0.95,1.90,180.00,
1414323675146,1.00,-4.00,-100.00,868.00,395.00,34.00,1970.00,16.00,551.00,5668.00,0.00,50.00,147.65,0.70,8.95,False,7,0,0,750.00,System,1.75,4.37,180.00,
1414323675304,1.00,-2.00,-7.08,868.00,395.00,34.00,1970.00,16.00,551.00,5668.00,0.00,50.00,148.32,0.54,12.46,False,5,0,0,750.00,System,0.71,1.06,180.00,
1414323675461,-1.00,-10.00,-100.00,868.00,395.00,34.00,1970.00,16.00,551.00,5668.00,0.00,50.00,149.87,0.49,10.97,False,6,0,0,750.00,System,2.21,12.18,180.00,
1414323675624,1.00,-8.00,-100.00,868.00,395.00,34.00,1970.00,16.00,551.00,5668.00,0.00,50.00,149.97,0.68,11.50,False,5,0,0,750.00,System,1.60,7.20,180.00,
1414323675790,1.00,-7.00,-100.00,868.00,395.00,34.00,1970.00,16.00,551.00,5668.00,0.00,50.00,149.61,0.34,9.52,False,7,0,0,750.00,System,2.26,9.06,180.00,
1414323675948,1.00,-16.00,-98.28,868.00,395.00,34.00,1970.00,16.00,551.00,5668.00,0.00,50.00,148.12,0.22,8.39,False,6,0,0,750.00,System,2.51,21.34,180.00,
1414323676103,-1.00,-10.00,-55.08,868.00,395.00,34.00,1970.00,16.00,551.00,5668.00,0.00,50.00,147.58,0.67,9.84,False,6,0,0,750.00,System,1.41,7.74,180.00,
1414323676295,1.00,-8.00,-100.00,868.00,395.00,34.00,1970.00,16.00,551.00,5668.00,0.00,50.00,148.16,0.45,6.98,False,6,0,0,750.00,System,1.41,6.35,180.00,
1414323676427,1.00,-11.00,-13.31,868.00,395.00,34.00,1970.00,16.00,551.00,5668.00,0.00,50.00,149.06,1.05,6.10,False,5,0,0,750.00,System,0.92,5.49,180.00,
1414323676603,1.00,1.00,16.96,868.00,395.00,34.00,1970.00,16.00,551.00,5668.00,0.00,50.00,150.78,1.45,8.77,False,5,0,0,750.00,System,0.23,0.23,180.00,
1414323676754,-1.00,-4.00,2.02,868.00,395.00,34.00,1970.00,16.00,551.00,5668.00,0.00,50.00,152.04,1.27,9.06,False,6,0,0,750.00,System,0.93,2.33,180.00,
1414323676916,1.00,2.00,23.99,868.00,395.00,34.00,1970.00,16.00,551.00,5668.00,0.00,50.00,152.96,1.46,7.03,False,5,0,0,750.00,System,0.43,0.65,180.00,
1414323677091,1.00,6.00,80.65,868.00,395.00,34.00,1970.00,16.00,551.00,5668.00,0.00,50.00,152.38,1.48,9.13,False,5,0,0,750.00,System,0.44,1.55,180.00,
1414323677229,1.00,10.00,52.42,868.00,395.00,34.00,1970.00,16.00,551.00,5668.00,0.00,50.00,152.62,1.32,16.07,False,6,0,0,750.00,System,0.36,1.96,180.00,
1414323677405,-1.00,-1.00,-100.00,868.00,395.00,34.00,1970.00,16.00,551.00,5668.00,0.00,50.00,153.84,1.49,12.75,False,5,0,0,750.00,System,1.80,1.80,180.00,
1414323677541,-1.00,-5.00,-100.00,868.00,395.00,34.00,1970.00,16.00,551.00,5668.00,0.00,50.00,152.74,2.29,8.43,False,6,0,0,750.00,System,1.55,4.66,180.00,
1414323677696,-1.00,-2.00,-20.12,868.00,395.00,34.00,1970.00,16.00,551.00,5668.00,0.00,50.00,150.54,2.61,10.85,False,5,0,0,750.00,System,0.53,0.79,180.00,
1414323677869,-1.00,-5.00,-100.00,868.00,395.00,34.00,1970.00,16.00,551.00,5668.00,0.00,50.00,151.14,2.50,10.14,False,6,0,0,750.00,System,1.22,3.66,180.00,
1414323678007,1.00,-10.00,-100.00,868.00,395.00,34.00,1970.00,16.00,551.00,5668.00,0.00,50.00,152.16,2.38,8.83,False,6,0,0,750.00,System,1.77,9.73,180.00,
1414323678164,-1.00,-14.00,-100.00,868.00,395.00,34.00,1970.00,16.00,551.00,5668.00,0.00,50.00,152.25,2.31,9.20,False,6,0,0,750.00,System,2.91,21.82,180.00,
1414323678344,-1.00,-17.00,-100.00,868.00,395.00,34.00,1970.00,16.00,551.00,5668.00,0.00,50.00,151.77,1.20,9.31,False,6,0,0,750.00,System,2.26,20.31,180.00,
1414323678483,-1.00,-22.00,-100.00,868.00,395.00,34.00,1970.00,16.00,551.00,5668.00,0.00,50.00,152.13,1.60,5.45,False,6,0,0,750.00,System,3.30,37.93,180.00,
1414323678643,-1.00,-11.00,-89.99,868.00,395.00,34.00,1970.00,16.00,551.00,5668.00,0.00,50.00,151.80,1.17,5.00,False,5,0,0,750.00,System,0.81,4.84,180.00,
1414323678799,1.00,-12.00,-39.68,868.00,395.00,34.00,1970.00,16.00,551.00,5668.00,0.00,50.00,149.56,1.25,5.85,False,6,0,0,750.00,System,1.41,9.14,180.00,
1414323678958,-1.00,-1.00,-100.00,868.00,395.00,34.00,1970.00,16.00,551.00,5668.00,0.00,50.00,148.48,1.46,5.62,False,6,0,0,750.00,System,0.14,0.14,180.00,
1414323679135,1.00,-6.00,-32.00,868.00,395.00,34.00,1970.00,16.00,551.00,5668.00,0.00,50.00,149.08,1.56,5.28,False,5,0,0,750.00,System,0.94,3.29,180.00,
1414323679279,1.00,-9.00,-19.45,868.00,395.00,34.00,1970.00,16.00,551.00,5668.00,0.00,50.00,150.05,1.40,6.04,False,5,0,0,750.00,System,0.57,2.84,180.00,
1414323679453,-1.00,-10.00,-74.16,868.00,395.00,34.00,1970.00,16.00,551.00,5668.00,0.00,50.00,151.14,1.10,4.08,False,7,0,0,750.00,System,1.20,6.58,180.00,
1414323679593,1.00,-5.00,-10.18,868.00,395.00,34.00,1970.00,16.00,551.00,5668.00,0.00,50.00,151.80,1.29,4.80,False,6,0,0,750.00,System,0.61,1.84,180.00,
1414323679752,-1.00,-4.00,-22.82,868.00,395.00,34.00,1970.00,16.00,551.00,5668.00,0.00,50.00,154.81,1.16,5.49,False,6,0,0,750.00,System,0.29,0.73,180.00,
1414323679922,1.00,-8.00,-19.32,868.00,395.00,34.00,1970.00,16.00,551.00,5668.00,0.00,50.00,157.43,1.25,-0.81,False,6,0,0,750.00,System,0.82,3.67,180.00,
1414323680080,1.00,2.00,74.09,868.00,395.00,34.00,1970.00,16.00,551.00,5668.00,0.00,50.00,161.10,1.36,1.03,False,5,0,0,750.00,System,0.00,0.00,180.00,
1414323680252,-1.00,14.00,72.60,868.00,395.00,34.00,1970.00,16.00,551.00,5668.00,0.00,50.00,161.92,0.64,7.62,False,6,0,0,750.00,System,0.25,1.84,180.00,
1414323680390,-1.00,16.00,34.26,868.00,395.00,34.00,1970.00,16.00,551.00,5668.00,0.00,50.00,159.54,-0.73,13.64,False,5,0,0,750.00,System,0.01,0.06,180.00,
1414323680542,1.00,4.00,13.49,868.00,395.00,34.00,1970.00,16.00,551.00,5668.00,0.00,50.00,156.48,-0.67,22.90,False,5,0,0,750.00,System,1.03,2.56,180.00,
1414323680701,1.00,5.00,-100.00,868.00,395.00,34.00,1970.00,16.00,551.00,5668.00,0.00,50.00,155.57,-1.26,23.28,False,5,0,0,750.00,System,3.15,9.46,180.00,
1414323680875,-1.00,-7.00,-100.00,868.00,395.00,34.00,1970.00,16.00,551.00,5668.00,0.00,50.00,154.71,-1.16,24.77,False,5,0,0,750.00,System,4.26,17.05,180.00,
1414323681014,-1.00,-14.00,-100.00,868.00,395.00,34.00,1970.00,16.00,551.00,5668.00,0.00,50.00,154.41,-1.24,22.50,False,5,0,0,750.00,System,5.78,43.37,180.00,
1414323681192,1.00,-11.00,-100.00,868.00,395.00,34.00,1970.00,16.00,551.00,5668.00,0.00,50.00,154.75,-0.35,15.78,False,5,0,0,750.00,System,4.51,27.04,180.00,
1414323681366,-1.00,-15.00,-100.00,868.00,395.00,34.00,1970.00,16.00,551.00,5668.00,0.00,50.00,149.64,0.49,-1.06,False,6,0,0,750.00,System,4.22,33.74,180.00,
1414323681534,1.00,2.00,100.00,868.00,395.00,34.00,1970.00,16.00,551.00,5668.00,0.00,50.00,142.64,0.14,2.79,False,6,0,0,750.00,System,0.01,0.02,180.00,
1414323681686,-1.00,15.00,73.44,868.00,395.00,34.00,1970.00,16.00,551.00,5668.00,0.00,50.00,142.19,1.02,8.83,False,5,0,0,750.00,System,0.03,0.26,180.00,
1414323681871,-1.00,10.00,35.95,868.00,395.00,34.00,1970.00,16.00,551.00,5668.00,0.00,50.00,142.36,1.32,8.27,False,6,0,0,750.00,System,0.16,0.90,180.00,
1414323682005,1.00,7.00,33.13,868.00,395.00,34.00,1970.00,16.00,551.00,5668.00,0.00,50.00,142.51,0.60,7.91,False,5,0,0,750.00,System,0.19,0.76,180.00,
1414323682161,1.00,3.00,22.42,868.00,395.00,34.00,1970.00,16.00,551.00,5668.00,0.00,50.00,142.59,0.22,8.70,False,6,0,0,750.00,System,0.40,0.79,180.00,
1414323682329,-1.00,7.00,12.26,868.00,395.00,34.00,1970.00,16.00,551.00,5668.00,0.00,50.00,143.27,0.14,9.37,False,6,0,0,750.00,System,0.10,0.38,180.00,
1414323682498,1.00,0.00,-100.00,868.00,395.00,34.00,1970.00,16.00,551.00,5668.00,0.00,50.00,143.70,0.49,3.15,False,5,0,0,750.00,System,0.80,0.40,180.00,
1414323682639,-1.00,5.00,44.76,868.00,395.00,34.00,1970.00,16.00,551.00,5668.00,0.00,50.00,142.53,0.54,6.09,False,6,0,0,750.00,System,0.03,0.10,180.00,
1414323682800,-1.00,6.00,32.39,868.00,395.00,34.00,1970.00,16.00,551.00,5668.00,0.00,50.00,142.05,0.68,8.09,False,6,0,0,750.00,System,0.20,0.71,180.00,
1414323682974,-1.00,4.00,8.55,868.00,395.00,34.00,1970.00,16.00,551.00,5668.00,0.00,50.00,142.14,0.77,8.06,False,6,0,0,750.00,System,0.36,0.91,180.00,
1414323683140,1.00,3.00,0.82,868.00,395.00,34.00,1970.00,16.00,551.00,5668.00,0.00,50.00,142.27,0.64,8.17,False,6,0,0,750.00,System,0.52,1.05,180.00,
1414323683278,-1.00,-1.00,-12.85,868.00,395.00,34.00,1970.00,16.00,551.00,5668.00,0.00,50.00,142.27,0.34,5.74,False,5,0,0,750.00,System,0.46,0.46,180.00,
1414323683434,-1.00,0.00,-3.92,868.00,395.00,34.00,1970.00,16.00,551.00,5668.00,0.00,50.00,141.44,0.64,5.19,False,5,0,0,750.00,System,0.24,0.12,180.00,
1414323683594,1.00,1.00,-20.32,868.00,395.00,34.00,1970.00,16.00,551.00,5668.00,0.00,50.00,141.98,0.72,5.30,False,6,0,0,750.00,System,0.30,0.30,180.00,
1414323683766,1.00,-1.00,-19.81,868.00,395.00,34.00,1970.00,16.00,551.00,5668.00,0.00,50.00,141.64,0.98,4.84,False,7,0,0,750.00,System,0.49,0.49,180.00,
1414323683922,1.00,-1.00,-8.30,868.00,395.00,34.00,1970.00,16.00,551.00,5668.00,0.00,50.00,141.56,0.85,4.80,False,6,0,0,750.00,System,0.29,0.29,180.00,
1414323684098,1.00,0.00,-23.36,868.00,395.00,34.00,1970.00,16.00,551.00,5668.00,0.00,50.00,142.12,0.58,4.92,False,5,0,0,750.00,System,0.32,0.16,180.00,
1414323684241,1.00,-1.00,-10.62,868.00,395.00,34.00,1970.00,16.00,551.00,5668.00,0.00,50.00,142.63,0.79,4.59,False,5,0,0,750.00,System,0.25,0.25,180.00,
1414323684399,-1.00,-2.00,-32.96,868.00,395.00,34.00,1970.00,16.00,551.00,5668.00,0.00,50.00,142.81,0.71,3.40,False,5,0,0,750.00,System,0.24,0.36,180.00,
1414323684626,1.00,-1.00,-18.89,868.00,395.00,34.00,1970.00,16.00,551.00,5668.00,0.00,50.00,142.92,0.46,3.62,False,6,0,0,750.00,System,0.30,0.30,180.00,
1414323684768,-1.00,0.00,-1.29,868.00,395.00,34.00,1970.00,16.00,551.00,5668.00,0.00,50.00,143.19,0.35,4.63,False,6,0,0,750.00,System,0.16,0.08,180.00,
1414323684941,1.00,-4.00,-4.78,868.00,395.00,34.00,1970.00,16.00,551.00,5668.00,0.00,50.00,143.62,0.19,4.38,False,6,0,0,750.00,System,0.31,0.78,180.00,
1414323685093,-1.00,-4.00,-43.98,868.00,395.00,34.00,1970.00,16.00,551.00,5668.00,0.00,50.00,143.86,-0.09,2.23,False,5,0,0,750.00,System,0.32,0.81,180.00,
1414323685245,-1.00,-6.00,-17.27,868.00,395.00,34.00,1970.00,16.00,551.00,5668.00,0.00,50.00,143.81,0.04,2.25,False,6,0,0,750.00,System,0.18,0.61,180.00,
1414323685441,1.00,-3.00,-33.62,868.00,395.00,34.00,1970.00,16.00,551.00,5668.00,0.00,50.00,143.59,0.11,1.06,False,5,0,0,750.00,System,0.12,0.24,180.00,
1414323685585,-1.00,-2.00,-8.32,868.00,395.00,34.00,1970.00,16.00,551.00,5668.00,0.00,50.00,143.04,0.05,-0.22,False,6,0,0,750.00,System,0.03,0.05,180.00,
1414323685753,-1.00,0.00,16.96,868.00,395.00,34.00,1970.00,16.00,551.00,5668.00,0.00,50.00,143.19,0.23,1.80,False,5,0,0,750.00,System,0.01,0.00,180.00,
1414323685897,-1.00,0.00,2.40,868.00,395.00,34.00,1970.00,16.00,551.00,5668.00,0.00,50.00,143.13,0.13,3.06,False,8,0,0,750.00,System,0.13,0.07,180.00,
1414323686064,-1.00,0.00,-12.99,868.00,395.00,34.00,1970.00,16.00,551.00,5668.00,0.00,50.00,143.21,0.09,2.77,False,5,0,0,750.00,System,0.15,0.07,180.00,
1414323686215,1.00,0.00,-12.05,868.00,395.00,34.00,1970.00,16.00,551.00,5668.00,0.00,50.00,143.19,0.26,2.23,False,6,0,0,750.00,System,0.18,0.09,180.00,
1414323686375,1.00,1.00,-4.82,868.00,395.00,34.00,1970.00,16.00,551.00,5668.00,0.00,50.00,142.81,0.28,2.31,False,5,0,0,750.00,System,0.09,0.09,180.00,
1414323686532,-1.00,5.00,6.79,868.00,395.00,34.00,1970.00,16.00,551.00,5668.00,0.00,50.00,143.65,0.24,3.26,False,5,0,0,750.00,System,0.03,0.09,180.00,
1414323686702,-1.00,1.00,17.26,868.00,395.00,34.00,1970.00,16.00,551.00,5668.00,0.00,50.00,144.29,0.06,3.90,False,5,0,0,750.00,System,0.12,0.12,180.00,
1414323686846,1.00,1.00,-1.31,868.00,395.00,34.00,1970.00,16.00,551.00,5668.00,0.00,50.00,144.55,-0.06,3.13,False,6,0,0,750.00,System,0.24,0.24,180.00,
1414323687004,1.00,1.00,0.50,868.00,395.00,34.00,1970.00,16.00,551.00,5668.00,0.00,50.00,144.49,0.04,3.52,False,5,0,0,750.00,System,0.10,0.10,180.00,
1414323687156,1.00,0.00,-16.75,868.00,395.00,34.00,1970.00,16.00,551.00,5668.00,0.00,50.00,144.39,0.06,3.10,False,6,0,0,750.00,System,0.21,0.11,180.00,
1414323687334,1.00,0.00,-17.85,868.00,395.00,34.00,1970.00,16.00,551.00,5668.00,0.00,50.00,144.35,0.26,2.39,False,5,0,0,750.00,System,0.20,0.10,180.00,
1414323687477,-1.00,0.00,11.85,868.00,395.00,34.00,1970.00,16.00,551.00,5668.00,0.00,50.00,144.58,0.16,4.24,False,6,0,0,750.00,System,0.06,0.03,180.00,
1414323687662,-1.00,-1.00,-4.31,868.00,395.00,34.00,1970.00,16.00,551.00,5668.00,0.00,50.00,144.84,0.24,3.57,False,5,0,0,750.00,System,0.16,0.16,180.00,
1414323687800,-1.00,-3.00,-6.27,868.00,395.00,34.00,1970.00,16.00,551.00,5668.00,0.00,50.00,145.12,0.18,2.09,False,5,0,0,750.00,System,0.19,0.38,180.00,
1414323687957,1.00,-4.00,-14.31,868.00,395.00,34.00,1970.00,16.00,551.00,5668.00,0.00,50.00,144.87,0.24,0.44,False,6,0,0,750.00,System,0.16,0.40,180.00,
1414323688128,-1.00,1.00,20.10,868.00,395.00,34.00,1970.00,16.00,551.00,5668.00,0.00,50.00,144.53,0.25,2.25,False,13,0,0,750.00,System,0.01,0.01,180.00,
1414323688270,-1.00,0.00,9.82,868.00,395.00,34.00,1970.00,16.00,551.00,5668.00,0.00,50.00,144.82,0.34,3.76,False,6,0,0,750.00,System,0.06,0.03,180.00,
1414323688432,-1.00,-3.00,-11.33,868.00,395.00,34.00,1970.00,16.00,551.00,5668.00,0.00,50.00,144.37,0.35,1.34,False,5,0,0,750.00,System,0.23,0.47,180.00,
1414323688612,1.00,-2.00,-6.93,868.00,395.00,34.00,1970.00,16.00,551.00,5668.00,0.00,50.00,143.13,0.57,0.34,False,6,0,0,750.00,System,0.08,0.12,180.00,
1414323688763,-1.00,1.00,6.37,868.00,395.00,34.00,1970.00,16.00,551.00,5668.00,0.00,50.00,142.15,0.48,2.55,False,6,0,0,750.00,System,0.04,0.04,180.00,
1414323688918,-1.00,0.00,6.38,868.00,395.00,34.00,1970.00,16.00,551.00,5668.00,0.00,50.00,142.25,0.58,2.80,False,5,0,0,750.00,System,0.08,0.04,180.00,
1414323689080,-1.00,-2.00,9.45,868.00,395.00,34.00,1970.00,16.00,551.00,5668.00,0.00,50.00,141.52,0.65,2.86,False,6,0,0,750.00,System,0.13,0.19,180.00,
1414323689255,1.00,-3.00,-5.00,868.00,395.00,34.00,1970.00,16.00,551.00,5668.00,0.00,50.00,141.59,0.72,-0.15,False,5,0,0,750.00,System,0.18,0.36,180.00,
1414323689412,1.00,1.00,11.88,868.00,395.00,34.00,1970.00,16.00,551.00,5668.00,0.00,50.00,141.43,0.87,0.52,False,6,0,0,750.00,System,0.01,0.01,180.00,
1414323689570,-1.00,1.00,26.36,868.00,395.00,34.00,1970.00,16.00,551.00,5668.00,0.00,50.00,141.62,0.84,2.00,False,5,0,0,750.00,System,0.03,0.03,180.00,
1414323689725,-1.00,3.00,5.39,868.00,395.00,34.00,1970.00,16.00,551.00,5668.00,0.00,50.00,141.19,0.75,2.72,False,7,0,0,750.00,System,0.02,0.05,180.00,
1414323689881,1.00,1.00,0.79,868.00,395.00,34.00,1970.00,16.00,551.00,5668.00,0.00,50.00,140.55,0.89,2.07,False,5,0,0,750.00,System,0.20,0.20,180.00,
1414323690050,1.00,1.00,11.75,868.00,395.00,34.00,1970.00,16.00,551.00,5668.00,0.00,50.00,140.62,0.91,2.28,False,5,0,0,750.00,System,0.11,0.11,180.00,
1414323690202,-1.00,1.00,9.42,868.00,395.00,34.00,1970.00,16.00,551.00,5668.00,0.00,50.00,140.85,0.80,2.42,False,5,0,0,750.00,System,0.06,0.06,180.00,
1414323690385,1.00,1.00,10.41,868.00,395.00,34.00,1970.00,16.00,551.00,5668.00,0.00,50.00,140.92,0.65,2.92,False,7,0,0,750.00,System,0.12,0.12,180.00,
1414323690541,-1.00,1.00,-8.58,868.00,395.00,34.00,1970.00,16.00,551.00,5668.00,0.00,50.00,140.72,0.95,2.01,False,6,0,0,750.00,System,0.17,0.17,180.00,
1414323690703,-1.00,-1.00,-10.65,868.00,395.00,34.00,1970.00,16.00,551.00,5668.00,0.00,50.00,139.91,0.81,1.49,False,6,0,0,750.00,System,0.07,0.07,180.00,
1414323690856,-1.00,1.00,-56.76,868.00,395.00,34.00,1970.00,16.00,551.00,5668.00,0.00,50.00,139.38,1.05,0.06,False,6,0,0,750.00,System,0.00,0.00,180.00,
1414323691045,1.00,3.00,23.58,868.00,395.00,34.00,1970.00,16.00,551.00,5668.00,0.00,50.00,138.79,0.99,2.86,False,5,0,0,750.00,System,0.00,0.01,180.00,
1414323691175,-1.00,3.00,-3.71,868.00,395.00,34.00,1970.00,16.00,551.00,5668.00,0.00,50.00,138.07,0.96,1.01,False,6,0,0,750.00,System,0.05,0.10,180.00,
1414323691439,-1.00,4.00,2.29,868.00,395.00,34.00,1970.00,16.00,551.00,5668.00,0.00,50.00,137.47,0.77,4.12,False,7,0,0,750.00,System,0.02,0.04,180.00,
1414323691520,-1.00,2.00,-13.99,868.00,395.00,34.00,1970.00,16.00,551.00,5668.00,0.00,50.00,137.18,0.83,3.49,False,6,0,0,750.00,System,0.09,0.13,180.00,
1414323691677,1.00,0.00,5.04,868.00,395.00,34.00,1970.00,16.00,551.00,5668.00,0.00,50.00,137.11,0.68,5.20,False,6,0,0,750.00,System,0.19,0.10,180.00,
1414323691826,-1.00,-3.00,-34.33,868.00,395.00,34.00,1970.00,16.00,551.00,5668.00,0.00,50.00,137.66,0.77,2.19,False,5,0,0,750.00,System,0.34,0.67,180.00,
1414323692000,-1.00,-5.00,6.85,868.00,395.00,34.00,1970.00,16.00,551.00,5668.00,0.00,50.00,136.54,0.32,2.72,False,6,0,0,750.00,System,0.18,0.53,180.00,
1414323692134,-1.00,-7.00,-26.88,868.00,395.00,34.00,1970.00,16.00,551.00,5668.00,0.00,50.00,136.39,0.36,0.50,False,6,0,0,750.00,System,0.40,1.59,180.00,
1414323692454,1.00,-7.00,-49.77,868.00,395.00,34.00,1970.00,16.00,551.00,5668.00,0.00,50.00,134.54,1.21,-2.99,False,6,0,0,750.00,System,0.33,1.30,180.00,
1414323692606,1.00,-3.00,25.66,868.00,395.00,34.00,1970.00,16.00,551.00,5668.00,0.00,50.00,133.17,1.50,-0.04,False,5,0,0,750.00,System,0.00,0.00,180.00,
1414323692779,1.00,-1.00,-0.24,868.00,395.00,34.00,1970.00,16.00,551.00,5668.00,0.00,50.00,133.08,1.34,1.48,False,5,0,0,750.00,System,0.10,0.10,180.00,
1414323692949,1.00,-5.00,-7.27,868.00,395.00,34.00,1970.00,16.00,551.00,5668.00,0.00,50.00,132.91,1.26,-0.11,False,6,0,0,750.00,System,0.23,0.69,180.00,
1414323693101,-1.00,-4.00,-17.00,868.00,395.00,34.00,1970.00,16.00,551.00,5668.00,0.00,50.00,132.20,1.34,-0.47,False,6,0,0,750.00,System,0.06,0.16,180.00,
1414323693282,-1.00,-2.00,-17.36,868.00,395.00,34.00,1970.00,16.00,551.00,5668.00,0.00,50.00,131.64,1.66,-0.74,False,7,0,0,750.00,System,0.03,0.04,180.00,
1414323693418,1.00,0.00,-4.28,868.00,395.00,34.00,1970.00,16.00,551.00,5668.00,0.00,50.00,130.86,2.06,0.48,False,6,0,0,750.00,System,0.02,0.01,180.00,
1414323693582,1.00,0.00,-7.45,868.00,395.00,34.00,1970.00,16.00,551.00,5668.00,0.00,50.00,131.00,2.03,0.86,False,6,0,0,750.00,System,0.04,0.02,180.00,
1414323693731,-1.00,0.00,8.75,868.00,395.00,34.00,1970.00,16.00,551.00,5668.00,0.00,50.00,131.39,2.05,2.60,False,6,0,0,750.00,System,0.03,0.02,180.00,
1414323693887,1.00,-8.00,-22.51,868.00,395.00,34.00,1970.00,16.00,551.00,5668.00,0.00,50.00,131.12,1.77,0.05,False,14,0,0,750.00,System,0.63,2.82,180.00,
1414323694047,1.00,-9.00,2.47,868.00,395.00,34.00,1970.00,16.00,551.00,5668.00,0.00,50.00,130.66,1.78,-0.11,False,13,0,0,750.00,System,0.13,0.63,180.00,
1414323694220,-1.00,-2.00,11.91,868.00,395.00,34.00,1970.00,16.00,551.00,5668.00,0.00,50.00,131.13,1.93,0.86,False,7,0,0,750.00,System,0.01,0.02,180.00,
1414323694363,-1.00,0.00,-24.47,868.00,395.00,34.00,1970.00,16.00,551.00,5668.00,0.00,50.00,131.26,1.87,-2.40,False,6,0,0,750.00,System,0.08,0.04,180.00,
1414323694526,1.00,2.00,24.63,868.00,395.00,34.00,1970.00,16.00,551.00,5668.00,0.00,50.00,131.58,2.22,0.48,False,6,0,0,750.00,System,0.02,0.02,180.00,
1414323694673,-1.00,5.00,3.64,868.00,395.00,34.00,1970.00,16.00,551.00,5668.00,0.00,50.00,131.68,2.10,2.86,False,6,0,0,750.00,System,0.01,0.02,180.00,
1414323694838,-1.00,3.00,17.87,868.00,395.00,34.00,1970.00,16.00,551.00,5668.00,0.00,50.00,130.98,1.95,3.65,False,6,0,0,750.00,System,0.05,0.09,180.00,
1414323695014,-1.00,-1.00,-4.21,868.00,395.00,34.00,1970.00,16.00,551.00,5668.00,0.00,50.00,130.24,1.76,2.29,False,6,0,0,750.00,System,0.20,0.20,180.00,
1414323695152,-1.00,0.00,-22.78,868.00,395.00,34.00,1970.00,16.00,551.00,5668.00,0.00,50.00,129.90,1.93,-0.98,False,5,0,0,750.00,System,0.17,0.08,180.00,
1414323695304,1.00,2.00,12.16,868.00,395.00,34.00,1970.00,16.00,551.00,5668.00,0.00,50.00,129.94,1.82,0.72,False,6,0,0,750.00,System,0.01,0.01,180.00,
1414323695485,-1.00,4.00,32.82,868.00,395.00,34.00,1970.00,16.00,551.00,5668.00,0.00,50.00,130.18,1.92,3.84,False,5,0,0,750.00,System,0.00,0.00,180.00,
1414323695622,1.00,1.00,-14.75,868.00,395.00,34.00,1970.00,16.00,551.00,5668.00,0.00,50.00,129.65,1.97,2.70,False,6,0,0,750.00,System,0.20,0.20,180.00,
1414323695776,-1.00,-1.00,-7.41,868.00,395.00,34.00,1970.00,16.00,551.00,5668.00,0.00,50.00,129.40,1.90,1.99,False,6,0,0,750.00,System,0.13,0.13,180.00,
