time,READ Read_LMO,READ Read_RMO,READ Read_anglePIDOutput,READ Read_APIDKp,READ Read_APIDKi,READ Read_APIDKd,READ Read_APIDAggKp,READ Read_APIDAggKi,READ Read_APIDAggKd,READ Read_SPIDKp,READ Read_SPIDKi,READ Read_SPIDKd,READ Read_Yaw,READ Read_Roll,READ Read_Pitch,READ Read_MotorsON,READ Read_LoopT,READ Read_SetsteerGain,READ Read_SetthrottleGain,READ Read_TriggerAngleAggressive,READ Read_Info,READ Read_ISTE,READ Read_BAL,READ FirmwareVersion,READ Read_calibratedZeroAngle,
1414967207171,-1.00,-1.00,-17.01,546.00,195.00,36.00,1477.50,9.00,413.25,4155.00,997.50,17.25,50.42,1.45,5.02,0,5,0,0,750.00,System,0.19,0.16,0.5,180.00,
1414967207217,-1.00,-1.00,-17.01,546.00,195.00,36.00,1477.50,9.00,413.25,4155.00,997.50,17.25,50.42,1.45,2.54,0,5,0,0,750.00,System,0.19,0.16,0.5,180.00,
1414967207315,0.00,1.00,3.23,546.00,195.00,36.00,1477.50,9.00,413.25,4155.00,997.50,17.25,49.77,1.31,4.07,0,6,0,0,750.00,System,0.20,0.09,0.5,180.00,
1414967207467,0.00,0.00,-10.11,546.00,195.00,36.00,1477.50,9.00,413.25,4155.00,997.50,17.25,50.79,1.34,2.68,0,5,0,0,750.00,System,0.12,0.00,0.5,180.00,
1414967207618,0.00,1.00,1.49,546.00,195.00,36.00,1477.50,9.00,413.25,4155.00,997.50,17.25,50.63,1.32,3.87,0,5,0,0,750.00,System,0.12,0.07,0.5,180.00,
1414967207774,0.00,-1.00,-7.40,546.00,195.00,36.00,1477.50,9.00,413.25,4155.00,997.50,17.25,51.87,1.21,2.88,0,6,0,0,750.00,System,0.12,0.06,0.5,180.00,
1414967207931,0.00,0.00,5.37,546.00,195.00,36.00,1477.50,9.00,413.25,4155.00,997.50,17.25,50.95,1.31,4.58,0,6,0,0,750.00,System,0.06,0.00,0.5,180.00,
1414967208086,0.00,-1.00,-14.79,546.00,195.00,36.00,1477.50,9.00,413.25,4155.00,997.50,17.25,51.90,1.12,2.63,0,7,0,0,750.00,System,0.23,0.09,0.5,180.00,
1414967208237,0.00,1.00,9.37,546.00,195.00,36.00,1477.50,9.00,413.25,4155.00,997.50,17.25,51.10,1.17,4.48,0,6,0,0,750.00,System,0.05,0.05,0.5,180.00,
1414967208394,0.00,0.00,-12.76,546.00,195.00,36.00,1477.50,9.00,413.25,4155.00,997.50,17.25,52.58,1.09,3.25,0,6,0,0,750.00,System,0.17,0.00,0.5,180.00,
1414967208548,0.00,-1.00,2.44,546.00,195.00,36.00,1477.50,9.00,413.25,4155.00,997.50,17.25,52.00,1.12,4.34,0,5,0,0,750.00,System,0.08,0.05,0.5,180.00,
1414967208697,0.00,-1.00,-11.17,546.00,195.00,36.00,1477.50,9.00,413.25,4155.00,997.50,17.25,53.25,1.04,2.56,0,6,0,0,750.00,System,0.17,0.07,0.5,180.00,
1414967208853,0.00,0.00,2.80,546.00,195.00,36.00,1477.50,9.00,413.25,4155.00,997.50,17.25,52.84,0.92,3.30,0,7,0,0,750.00,System,0.18,0.00,0.5,180.00,
1414967209007,-1.00,1.00,-1.00,546.00,195.00,36.00,1477.50,9.00,413.25,4155.00,997.50,17.25,53.72,1.02,2.99,0,6,0,0,750.00,System,0.08,0.11,0.5,180.00,
1414967209159,0.00,0.00,1.98,546.00,195.00,36.00,1477.50,9.00,413.25,4155.00,997.50,17.25,53.72,0.97,4.71,0,5,0,0,750.00,System,0.06,0.00,0.5,180.00,
1414967209314,0.00,0.00,-13.82,546.00,195.00,36.00,1477.50,9.00,413.25,4155.00,997.50,17.25,54.37,0.94,3.72,0,5,0,0,750.00,System,0.15,0.00,0.5,180.00,
1414967209471,-1.00,0.00,1.35,546.00,195.00,36.00,1477.50,9.00,413.25,4155.00,997.50,17.25,54.76,0.90,4.70,0,6,0,0,750.00,System,0.09,0.05,0.5,180.00,
1414967209626,-1.00,-1.00,-12.22,546.00,195.00,36.00,1477.50,9.00,413.25,4155.00,997.50,17.25,56.94,0.78,2.90,0,6,0,0,750.00,System,0.18,0.15,0.5,180.00,
1414967209778,0.00,0.00,6.46,546.00,195.00,36.00,1477.50,9.00,413.25,4155.00,997.50,17.25,57.22,0.74,4.73,0,6,0,0,750.00,System,0.07,0.00,0.5,180.00,
1414967209933,1.00,-1.00,-16.55,546.00,195.00,36.00,1477.50,9.00,413.25,4155.00,997.50,17.25,57.99,0.75,2.96,0,6,0,0,750.00,System,0.20,0.16,0.5,180.00,
1414967210189,-1.00,-1.00,6.40,546.00,195.00,36.00,1477.50,9.00,413.25,4155.00,997.50,17.25,57.75,0.70,4.24,0,7,0,0,750.00,System,0.08,0.11,0.5,180.00,
1414967210245,-1.00,-1.00,-11.86,546.00,195.00,36.00,1477.50,9.00,413.25,4155.00,997.50,17.25,58.54,0.63,2.44,0,5,0,0,750.00,System,0.14,0.13,0.5,180.00,
1414967210393,0.00,0.00,4.01,546.00,195.00,36.00,1477.50,9.00,413.25,4155.00,997.50,17.25,57.87,0.62,3.74,0,6,0,0,750.00,System,0.14,0.00,0.5,180.00,
1414967210549,0.00,0.00,-7.25,546.00,195.00,36.00,1477.50,9.00,413.25,4155.00,997.50,17.25,58.32,0.72,2.88,0,5,0,0,750.00,System,0.09,0.00,0.5,180.00,
1414967210695,0.00,0.00,5.94,546.00,195.00,36.00,1477.50,9.00,413.25,4155.00,997.50,17.25,57.80,0.73,5.62,0,5,0,0,750.00,System,0.04,0.00,0.5,180.00,
1414967210852,0.00,-1.00,-13.67,546.00,195.00,36.00,1477.50,9.00,413.25,4155.00,997.50,17.25,58.55,0.67,4.14,0,6,0,0,750.00,System,0.07,0.03,0.5,180.00,
1414967211006,0.00,-1.00,-2.48,546.00,195.00,36.00,1477.50,9.00,413.25,4155.00,997.50,17.25,58.69,0.82,1.78,0,6,0,0,750.00,System,0.17,0.06,0.5,180.00,
1414967211161,1.00,1.00,14.66,546.00,195.00,36.00,1477.50,9.00,413.25,4155.00,997.50,17.25,58.95,0.87,3.99,0,5,0,0,750.00,System,0.02,0.06,0.5,180.00,
1414967211309,0.00,0.00,-12.03,546.00,195.00,36.00,1477.50,9.00,413.25,4155.00,997.50,17.25,59.23,1.00,2.21,0,5,0,0,750.00,System,0.11,0.00,0.5,180.00,
1414967211464,0.00,0.00,2.30,546.00,195.00,36.00,1477.50,9.00,413.25,4155.00,997.50,17.25,58.79,1.01,4.35,0,5,0,0,750.00,System,0.13,0.00,0.5,180.00,
1414967211621,-1.00,-1.00,-14.93,546.00,195.00,36.00,1477.50,9.00,413.25,4155.00,997.50,17.25,58.98,0.99,3.65,0,5,0,0,750.00,System,0.13,0.13,0.5,180.00,
1414967211769,1.00,-2.00,-5.40,546.00,195.00,36.00,1477.50,9.00,413.25,4155.00,997.50,17.25,59.30,0.89,4.82,0,5,0,0,750.00,System,0.11,0.17,0.5,180.00,
1414967211924,1.00,-2.00,-29.38,546.00,195.00,36.00,1477.50,9.00,413.25,4155.00,997.50,17.25,59.78,0.66,4.62,0,6,0,0,750.00,System,0.35,0.39,0.5,180.00,
1414967212075,0.00,-5.00,-19.53,546.00,195.00,36.00,1477.50,9.00,413.25,4155.00,997.50,17.25,59.93,0.64,4.19,0,6,0,0,750.00,System,0.29,0.70,0.5,180.00,
1414967212223,-1.00,-7.00,-52.75,546.00,195.00,36.00,1477.50,9.00,413.25,4155.00,997.50,17.25,60.28,0.59,-5.59,0,5,0,0,750.00,System,0.93,2.74,0.5,180.00,
1414967212374,0.00,-8.00,18.34,546.00,195.00,36.00,1477.50,9.00,413.25,4155.00,997.50,17.25,59.87,1.38,-5.78,0,5,0,0,750.00,System,0.53,2.37,0.5,180.00,
1414967212531,0.00,0.00,65.95,546.00,195.00,36.00,1477.50,9.00,413.25,4155.00,997.50,17.25,60.46,1.32,-0.88,0,6,0,0,750.00,System,0.00,0.00,0.5,180.00,
1414967212685,-1.00,5.00,13.99,546.00,195.00,36.00,1477.50,9.00,413.25,4155.00,997.50,17.25,61.81,1.74,2.42,0,6,0,0,750.00,System,0.01,0.28,0.5,180.00,
1414967212833,0.00,4.00,-3.15,546.00,195.00,36.00,1477.50,9.00,413.25,4155.00,997.50,17.25,62.38,1.78,0.89,0,6,0,0,750.00,System,0.02,0.10,0.5,180.00,
1414967212988,1.00,3.00,26.25,546.00,195.00,36.00,1477.50,9.00,413.25,4155.00,997.50,17.25,61.34,1.82,5.24,0,7,0,0,750.00,System,0.00,0.04,0.5,180.00,
1414967213148,-1.00,2.00,-23.82,546.00,195.00,36.00,1477.50,9.00,413.25,4155.00,997.50,17.25,61.71,1.26,2.85,0,5,0,0,750.00,System,0.16,0.16,0.5,180.00,
1414967213296,0.00,1.00,7.29,546.00,195.00,36.00,1477.50,9.00,413.25,4155.00,997.50,17.25,60.73,1.24,4.95,0,6,0,0,750.00,System,0.06,0.04,0.5,180.00,
1414967213447,-1.00,-1.00,-16.23,546.00,195.00,36.00,1477.50,9.00,413.25,4155.00,997.50,17.25,62.20,1.24,3.26,0,5,0,0,750.00,System,0.17,0.13,0.5,180.00,
1414967213594,0.00,-1.00,-2.15,546.00,195.00,36.00,1477.50,9.00,413.25,4155.00,997.50,17.25,61.32,1.27,2.49,0,6,0,0,750.00,System,0.21,0.09,0.5,180.00,
1414967213751,0.00,0.00,-1.04,546.00,195.00,36.00,1477.50,9.00,413.25,4155.00,997.50,17.25,60.86,1.20,2.58,0,6,0,0,750.00,System,0.12,0.00,0.5,180.00,
1414967213897,-1.00,1.00,6.45,546.00,195.00,36.00,1477.50,9.00,413.25,4155.00,997.50,17.25,61.24,1.09,5.33,0,5,0,0,750.00,System,0.03,0.07,0.5,180.00,
1414967214054,0.00,0.00,-8.96,546.00,195.00,36.00,1477.50,9.00,413.25,4155.00,997.50,17.25,62.29,0.98,4.34,0,7,0,0,750.00,System,0.04,0.00,0.5,180.00,
1414967214205,0.00,0.00,-4.67,546.00,195.00,36.00,1477.50,9.00,413.25,4155.00,997.50,17.25,61.28,1.11,3.77,0,5,0,0,750.00,System,0.12,0.00,0.5,180.00,
1414967214356,0.00,0.00,-5.53,546.00,195.00,36.00,1477.50,9.00,413.25,4155.00,997.50,17.25,60.94,1.04,3.83,0,6,0,0,750.00,System,0.17,0.00,0.5,180.00,
1414967214504,0.00,0.00,-5.02,546.00,195.00,36.00,1477.50,9.00,413.25,4155.00,997.50,17.25,60.85,1.05,3.70,0,5,0,0,750.00,System,0.10,0.00,0.5,180.00,
1414967214659,0.00,-1.00,-5.94,546.00,195.00,36.00,1477.50,9.00,413.25,4155.00,997.50,17.25,60.44,1.08,3.78,0,5,0,0,750.00,System,0.11,0.06,0.5,180.00,
1414967214815,0.00,0.00,-4.30,546.00,195.00,36.00,1477.50,9.00,413.25,4155.00,997.50,17.25,60.42,1.11,3.88,0,6,0,0,750.00,System,0.11,0.00,0.5,180.00,
1414967214971,0.00,0.00,-5.68,546.00,195.00,36.00,1477.50,9.00,413.25,4155.00,997.50,17.25,60.42,1.12,4.30,0,6,0,0,750.00,System,0.12,0.00,0.5,180.00,
1414967215128,0.00,0.00,-9.16,546.00,195.00,36.00,1477.50,9.00,413.25,4155.00,997.50,17.25,60.30,1.18,5.11,0,6,0,0,750.00,System,0.15,0.00,0.5,180.00,
1414967215274,0.00,0.00,-13.50,546.00,195.00,36.00,1477.50,9.00,413.25,4155.00,997.50,17.25,60.38,1.11,3.79,0,6,0,0,750.00,System,0.21,0.00,0.5,180.00,
1414967215431,0.00,0.00,-3.82,546.00,195.00,36.00,1477.50,9.00,413.25,4155.00,997.50,17.25,60.45,1.31,2.58,0,6,0,0,750.00,System,0.19,0.00,0.5,180.00,
1414967215770,0.00,0.00,4.98,546.00,195.00,36.00,1477.50,9.00,413.25,4155.00,997.50,17.25,60.58,1.40,4.10,0,6,0,0,750.00,System,0.05,0.00,0.5,180.00,
1414967215797,0.00,-1.00,-10.99,546.00,195.00,36.00,1477.50,9.00,413.25,4155.00,997.50,17.25,60.95,1.34,2.71,0,6,0,0,750.00,System,0.13,0.06,0.5,180.00,
1414967215894,1.00,0.00,1.62,546.00,195.00,36.00,1477.50,9.00,413.25,4155.00,997.50,17.25,60.49,1.26,3.96,0,7,0,0,750.00,System,0.16,0.07,0.5,180.00,
1414967216036,1.00,0.00,-10.93,546.00,195.00,36.00,1477.50,9.00,413.25,4155.00,997.50,17.25,61.27,1.12,2.40,0,6,0,0,750.00,System,0.14,0.07,0.5,180.00,
1414967216188,0.00,1.00,0.63,546.00,195.00,36.00,1477.50,9.00,413.25,4155.00,997.50,17.25,60.28,1.13,3.82,0,7,0,0,750.00,System,0.17,0.08,0.5,180.00,
1414967216344,1.00,0.00,-12.89,546.00,195.00,36.00,1477.50,9.00,413.25,4155.00,997.50,17.25,60.94,1.00,2.13,0,6,0,0,750.00,System,0.17,0.08,0.5,180.00,
1414967216498,0.00,1.00,8.87,546.00,195.00,36.00,1477.50,9.00,413.25,4155.00,997.50,17.25,59.57,1.20,4.78,0,5,0,0,750.00,System,0.03,0.04,0.5,180.00,
1414967216721,-1.00,-1.00,-18.17,790.00,195.00,36.00,1477.50,9.00,413.25,4155.00,997.50,17.25,60.35,1.09,3.06,0,5,0,0,750.00,System,0.16,0.13,0.5,180.00,
1414967216860,1.00,-28.00,-16.04,790.00,195.00,36.00,1477.50,9.00,413.25,4155.00,997.50,17.25,59.36,1.15,-5.25,0,122,0,0,750.00,System,4.45,40.61,0.5,180.00,
1414967217011,-1.00,-7.00,-40.41,790.00,195.00,36.00,1477.50,9.00,413.25,4155.00,997.50,17.25,57.40,1.61,-13.79,0,6,0,0,750.00,System,0.12,4.59,0.5,180.00,
1414967217163,1.00,-4.00,100.00,790.00,195.00,36.00,1477.50,9.00,413.25,4155.00,997.50,17.25,54.27,1.04,-7.28,0,6,0,0,750.00,System,0.08,1.21,0.5,180.00,
1414967217310,0.00,2.00,-100.00,790.00,195.00,36.00,1477.50,9.00,413.25,4155.00,997.50,17.25,56.38,1.42,-18.77,0,6,0,0,750.00,System,1.00,0.80,0.5,180.00,
1414967217462,1.00,-5.00,100.00,790.00,195.00,36.00,1477.50,9.00,413.25,4155.00,997.50,17.25,53.17,1.62,-14.88,0,7,0,0,750.00,System,0.29,1.46,0.5,180.00,
1414967217613,0.00,5.00,83.52,790.00,195.00,36.00,1477.50,9.00,413.25,4155.00,997.50,17.25,53.68,1.75,-5.39,0,6,0,0,750.00,System,2.38,4.15,0.5,180.00,
1414967217761,1.00,8.00,-100.00,790.00,195.00,36.00,1477.50,9.00,413.25,4155.00,997.50,17.25,58.13,1.67,-13.77,0,6,0,0,750.00,System,2.98,11.14,0.5,180.00,
1414967217913,-1.00,-1.00,100.00,790.00,195.00,36.00,1477.50,9.00,413.25,4155.00,997.50,17.25,58.25,1.85,-7.50,0,5,0,0,750.00,System,0.25,1.10,0.5,180.00,
1414967218064,-1.00,2.00,-100.00,790.00,195.00,36.00,1477.50,9.00,413.25,4155.00,997.50,17.25,58.27,2.42,-16.84,0,6,0,0,750.00,System,1.36,1.89,0.5,180.00,
1414967218216,1.00,-5.00,100.00,790.00,195.00,36.00,1477.50,9.00,413.25,4155.00,997.50,17.25,55.53,2.83,-12.96,0,5,0,0,750.00,System,0.11,1.65,0.5,180.00,
1414967218371,0.00,3.00,22.35,790.00,195.00,36.00,1477.50,9.00,413.25,4155.00,997.50,17.25,54.01,2.49,-9.77,0,5,0,0,750.00,System,1.33,1.54,0.5,180.00,
1414967218518,0.00,4.00,71.67,790.00,195.00,36.00,1477.50,9.00,413.25,4155.00,997.50,17.25,53.87,2.14,-2.52,0,5,0,0,750.00,System,0.39,1.27,0.5,180.00,
1414967218671,0.00,8.00,96.60,790.00,195.00,36.00,1477.50,9.00,413.25,4155.00,997.50,17.25,53.47,3.52,10.21,0,5,0,0,750.00,System,0.94,3.29,0.5,180.00,
1414967218821,1.00,13.00,23.77,790.00,195.00,36.00,1477.50,9.00,413.25,4155.00,997.50,17.25,51.51,2.70,20.50,0,5,0,0,750.00,System,0.35,3.72,0.5,180.00,
1414967218969,0.00,7.00,-100.00,790.00,195.00,36.00,1477.50,9.00,413.25,4155.00,997.50,17.25,48.27,1.48,12.00,0,5,0,0,750.00,System,0.03,0.77,0.5,180.00,
1414967219127,0.00,-1.00,100.00,790.00,195.00,36.00,1477.50,9.00,413.25,4155.00,997.50,17.25,48.06,1.39,22.74,0,6,0,0,750.00,System,2.17,0.71,0.5,180.00,
1414967219270,-1.00,5.00,-100.00,790.00,195.00,36.00,1477.50,9.00,413.25,4155.00,997.50,17.25,46.39,1.55,14.36,0,6,0,0,750.00,System,0.95,3.39,0.5,180.00,
1414967219430,-1.00,-2.00,100.00,790.00,195.00,36.00,1477.50,9.00,413.25,4155.00,997.50,17.25,46.87,1.80,24.61,0,6,0,0,750.00,System,3.03,3.46,0.5,180.00,
1414967219574,-1.00,3.00,-100.00,790.00,195.00,36.00,1477.50,9.00,413.25,4155.00,997.50,17.25,44.59,1.74,15.46,0,6,0,0,750.00,System,3.37,5.93,0.5,180.00,
1414967219782,1.00,-2.00,100.00,790.00,195.00,36.00,1477.50,9.00,413.25,4155.00,997.50,17.25,46.21,1.58,25.71,0,6,0,0,750.00,System,3.32,4.77,0.5,180.00,
1414967219881,0.00,5.00,-100.00,790.00,195.00,36.00,1477.50,9.00,413.25,4155.00,997.50,17.25,42.58,-0.30,17.53,0,6,0,0,750.00,System,1.45,5.28,0.5,180.00,
1414967220025,-1.00,-2.00,100.00,790.00,195.00,36.00,1477.50,9.00,413.25,4155.00,997.50,17.25,43.87,0.32,28.65,0,6,0,0,750.00,System,3.75,4.68,0.5,180.00,
1414967220177,0.00,4.00,-100.00,790.00,195.00,36.00,1477.50,9.00,413.25,4155.00,997.50,17.25,40.01,-0.05,20.35,0,6,0,0,750.00,System,1.97,4.82,0.5,180.00,
1414967220332,0.00,-1.00,100.00,790.00,195.00,36.00,1477.50,9.00,413.25,4155.00,997.50,17.25,42.28,-0.08,29.69,0,6,0,0,750.00,System,4.69,1.91,0.5,180.00,
1414967220481,0.00,3.00,-100.00,790.00,195.00,36.00,1477.50,9.00,413.25,4155.00,997.50,17.25,38.34,-0.08,19.71,0,6,0,0,750.00,System,2.25,4.28,0.5,180.00,
1414967220636,0.00,-2.00,100.00,790.00,195.00,36.00,1477.50,9.00,413.25,4155.00,997.50,17.25,41.03,0.74,29.16,0,6,0,0,750.00,System,4.91,4.12,0.5,180.00,
1414967220784,0.00,3.00,-100.00,790.00,195.00,36.00,1477.50,9.00,413.25,4155.00,997.50,17.25,36.12,2.15,21.60,0,6,0,0,750.00,System,4.90,6.91,0.5,180.00,
1414967220934,-1.00,-1.00,100.00,790.00,195.00,36.00,1477.50,9.00,413.25,4155.00,997.50,17.25,39.06,1.92,31.45,0,6,0,0,750.00,System,5.48,5.14,0.5,180.00,
1414967221085,-1.00,2.00,-100.00,790.00,195.00,36.00,1477.50,9.00,413.25,4155.00,997.50,17.25,34.16,2.45,23.28,0,5,0,0,750.00,System,2.34,5.12,0.5,180.00,
1414967221233,-1.00,0.00,100.00,790.00,195.00,36.00,1477.50,9.00,413.25,4155.00,997.50,17.25,37.60,2.93,32.41,0,5,0,0,750.00,System,4.98,2.19,0.5,180.00,
1414967221389,0.00,3.00,-100.00,790.00,195.00,36.00,1477.50,9.00,413.25,4155.00,997.50,17.25,33.90,2.09,24.11,0,7,0,0,750.00,System,3.46,5.72,0.5,180.00,
1414967221541,1.00,0.00,-82.80,790.00,195.00,36.00,1477.50,9.00,413.25,4155.00,997.50,17.25,38.15,1.72,18.56,0,6,0,0,750.00,System,3.62,1.85,0.5,180.00,
1414967221697,0.00,-2.00,39.68,790.00,195.00,36.00,1477.50,9.00,413.25,4155.00,997.50,17.25,41.74,1.92,25.12,0,6,0,0,750.00,System,5.07,4.54,0.5,180.00,
1414967221844,0.00,0.00,-100.00,790.00,195.00,36.00,1477.50,9.00,413.25,4155.00,997.50,17.25,41.32,1.72,17.07,0,5,0,0,750.00,System,3.34,0.00,0.5,180.00,
1414967221995,0.00,-1.00,100.00,790.00,195.00,36.00,1477.50,9.00,413.25,4155.00,997.50,17.25,43.66,1.85,29.32,0,5,0,0,750.00,System,3.33,1.76,0.5,180.00,
1414967222148,1.00,4.00,-100.00,790.00,195.00,36.00,1477.50,9.00,413.25,4155.00,997.50,17.25,39.91,2.24,21.74,0,6,0,0,750.00,System,2.15,6.68,0.5,180.00,
1414967222295,0.00,-1.00,100.00,790.00,195.00,36.00,1477.50,9.00,413.25,4155.00,997.50,17.25,41.18,2.52,30.60,0,5,0,0,750.00,System,3.91,1.72,0.5,180.00,
1414967222445,0.00,3.00,-100.00,790.00,195.00,36.00,1477.50,9.00,413.25,4155.00,997.50,17.25,36.32,1.57,22.61,0,5,0,0,750.00,System,2.20,4.01,0.5,180.00,
1414967222598,-1.00,0.00,100.00,790.00,195.00,36.00,1477.50,9.00,413.25,4155.00,997.50,17.25,39.66,1.37,31.80,0,6,0,0,750.00,System,5.51,2.21,0.5,180.00,
1414967222815,1.00,2.00,-100.00,641.00,195.00,36.00,1477.50,9.00,413.25,4155.00,997.50,17.25,34.33,1.81,24.98,0,5,0,0,750.00,System,2.30,4.67,0.5,180.00,
1414967222958,-1.00,-83.00,-100.00,641.00,195.00,36.00,1477.50,9.00,413.25,4155.00,997.50,17.25,37.55,1.86,2.59,0,122,0,0,750.00,System,126.28,3327.80,0.5,180.00,
1414967223110,0.00,-12.00,100.00,641.00,195.00,36.00,1477.50,9.00,413.25,4155.00,997.50,17.25,45.37,0.28,10.79,0,5,0,0,750.00,System,3.10,193.07,0.5,180.00,
1414967223261,1.00,2.00,-100.00,641.00,195.00,36.00,1477.50,9.00,413.25,4155.00,997.50,17.25,47.67,0.48,0.80,0,6,0,0,750.00,System,0.04,18.48,0.5,180.00,
1414967223412,1.00,-6.00,-4.30,641.00,195.00,36.00,1477.50,9.00,413.25,4155.00,997.50,17.25,44.65,0.76,-4.78,0,6,0,0,750.00,System,0.94,18.50,0.5,180.00,
1414967223560,-1.00,-2.00,22.43,641.00,195.00,36.00,1477.50,9.00,413.25,4155.00,997.50,17.25,43.43,0.39,-2.11,0,5,0,0,750.00,System,0.13,3.15,0.5,180.00,
1414967223715,0.00,2.00,26.09,641.00,195.00,36.00,1477.50,9.00,413.25,4155.00,997.50,17.25,44.32,0.66,2.81,0,6,0,0,750.00,System,0.07,0.84,0.5,180.00,
1414967223867,1.00,3.00,-12.58,641.00,195.00,36.00,1477.50,9.00,413.25,4155.00,997.50,17.25,45.34,0.34,0.74,0,6,0,0,750.00,System,0.07,0.73,0.5,180.00,
1414967224019,1.00,2.00,20.10,641.00,195.00,36.00,1477.50,9.00,413.25,4155.00,997.50,17.25,43.91,0.67,4.28,0,6,0,0,750.00,System,0.00,0.21,0.5,180.00,
1414967224177,0.00,0.00,-0.81,641.00,195.00,36.00,1477.50,9.00,413.25,4155.00,997.50,17.25,44.03,-0.16,3.73,0,5,0,0,750.00,System,0.00,0.00,0.5,180.00,
1414967224327,0.00,-1.00,-6.62,641.00,195.00,36.00,1477.50,9.00,413.25,4155.00,997.50,17.25,43.75,-0.08,3.29,0,6,0,0,750.00,System,0.13,0.05,0.5,180.00,
1414967224477,-1.00,-1.00,-3.34,641.00,195.00,36.00,1477.50,9.00,413.25,4155.00,997.50,17.25,44.17,-0.05,2.61,0,5,0,0,750.00,System,0.08,0.09,0.5,180.00,
1414967224633,1.00,0.00,-6.34,641.00,195.00,36.00,1477.50,9.00,413.25,4155.00,997.50,17.25,45.33,0.05,1.42,0,7,0,0,750.00,System,0.17,0.07,0.5,180.00,
1414967224781,0.00,1.00,12.79,641.00,195.00,36.00,1477.50,9.00,413.25,4155.00,997.50,17.25,46.52,0.05,4.30,0,5,0,0,750.00,System,0.01,0.03,0.5,180.00,
1414967224936,0.00,0.00,-4.84,641.00,195.00,36.00,1477.50,9.00,413.25,4155.00,997.50,17.25,48.39,0.33,4.57,0,6,0,0,750.00,System,0.01,0.00,0.5,180.00,
1414967225084,-1.00,-1.00,-13.24,641.00,195.00,36.00,1477.50,9.00,413.25,4155.00,997.50,17.25,49.48,0.48,3.22,0,6,0,0,750.00,System,0.19,0.13,0.5,180.00,
1414967225239,-1.00,-1.00,-13.33,641.00,195.00,36.00,1477.50,9.00,413.25,4155.00,997.50,17.25,50.27,0.41,2.53,0,5,0,0,750.00,System,0.21,0.18,0.5,180.00,
1414967225395,0.00,-2.00,-1.53,641.00,195.00,36.00,1477.50,9.00,413.25,4155.00,997.50,17.25,51.26,0.36,2.41,0,5,0,0,750.00,System,0.07,0.11,0.5,180.00,
1414967225543,0.00,-3.00,-4.23,641.00,195.00,36.00,1477.50,9.00,413.25,4155.00,997.50,17.25,52.85,0.43,1.92,0,5,0,0,750.00,System,0.08,0.14,0.5,180.00,
1414967225698,0.00,-3.00,-22.01,641.00,195.00,36.00,1477.50,9.00,413.25,4155.00,997.50,17.25,54.07,0.54,0.42,0,6,0,0,750.00,System,0.32,0.35,0.5,180.00,
1414967225851,-1.00,-5.00,10.89,641.00,195.00,36.00,1477.50,9.00,413.25,4155.00,997.50,17.25,54.39,0.36,4.85,0,5,0,0,750.00,System,0.02,0.31,0.5,180.00,
1414967226005,0.00,-3.00,-38.16,641.00,195.00,36.00,1477.50,9.00,413.25,4155.00,997.50,17.25,55.49,0.68,-1.10,0,6,0,0,750.00,System,0.18,0.23,0.5,180.00,
1414967226155,1.00,-2.00,34.52,641.00,195.00,36.00,1477.50,9.00,413.25,4155.00,997.50,17.25,55.19,1.13,3.76,0,6,0,0,750.00,System,0.00,0.09,0.5,180.00,
1414967226308,0.00,0.00,-14.98,641.00,195.00,36.00,1477.50,9.00,413.25,4155.00,997.50,17.25,55.42,0.92,1.93,0,5,0,0,750.00,System,0.01,0.00,0.5,180.00,
1414967226464,0.00,-1.00,9.08,641.00,195.00,36.00,1477.50,9.00,413.25,4155.00,997.50,17.25,55.20,0.96,3.46,0,6,0,0,750.00,System,0.04,0.02,0.5,180.00,
1414967226611,0.00,0.00,-11.14,641.00,195.00,36.00,1477.50,9.00,413.25,4155.00,997.50,17.25,56.13,0.95,1.96,0,5,0,0,750.00,System,0.10,0.00,0.5,180.00,
1414967226767,0.00,0.00,-0.58,641.00,195.00,36.00,1477.50,9.00,413.25,4155.00,997.50,17.25,55.34,0.99,1.07,0,6,0,0,750.00,System,0.14,0.00,0.5,180.00,
1414967226919,-1.00,1.00,18.17,641.00,195.00,36.00,1477.50,9.00,413.25,4155.00,997.50,17.25,55.35,0.85,4.99,0,5,0,0,750.00,System,0.00,0.04,0.5,180.00,
1414967227136,0.00,0.00,-6.68,641.00,212.00,36.00,1477.50,9.00,413.25,4155.00,997.50,17.25,56.63,0.89,3.92,0,5,0,0,750.00,System,0.00,0.00,0.5,180.00,
1414967227274,0.00,-6.00,-30.09,641.00,212.00,36.00,1477.50,9.00,413.25,4155.00,997.50,17.25,56.27,0.77,-9.85,0,121,0,0,750.00,System,4.97,9.24,0.5,180.00,
1414967227422,1.00,-8.00,-1.91,641.00,212.00,36.00,1477.50,9.00,413.25,4155.00,997.50,17.25,52.91,1.35,-18.77,0,6,0,0,750.00,System,0.28,6.07,0.5,180.00,
1414967227570,0.00,-6.00,100.00,641.00,212.00,36.00,1477.50,9.00,413.25,4155.00,997.50,17.25,49.93,1.32,-14.96,0,7,0,0,750.00,System,0.63,2.72,0.5,180.00,
1414967227721,0.00,5.00,92.08,641.00,212.00,36.00,1477.50,9.00,413.25,4155.00,997.50,17.25,50.86,0.90,-4.59,0,6,0,0,750.00,System,2.57,4.84,0.5,180.00,
1414967227873,1.00,10.00,82.86,641.00,212.00,36.00,1477.50,9.00,413.25,4155.00,997.50,17.25,50.30,1.36,6.69,0,6,0,0,750.00,System,2.10,11.19,0.5,180.00,
1414967228021,0.00,12.00,34.06,641.00,212.00,36.00,1477.50,9.00,413.25,4155.00,997.50,17.25,49.59,1.13,17.71,0,5,0,0,750.00,System,0.71,7.29,0.5,180.00,
1414967228172,1.00,10.00,-100.00,641.00,212.00,36.00,1477.50,9.00,413.25,4155.00,997.50,17.25,45.46,1.39,10.71,0,7,0,0,750.00,System,0.00,2.56,0.5,180.00,
1414967228324,1.00,0.00,100.00,641.00,212.00,36.00,1477.50,9.00,413.25,4155.00,997.50,17.25,46.14,1.39,23.31,0,6,0,0,750.00,System,1.24,0.47,0.5,180.00,
1414967228471,1.00,7.00,-100.00,641.00,212.00,36.00,1477.50,9.00,413.25,4155.00,997.50,17.25,45.32,0.92,15.73,0,5,0,0,750.00,System,0.55,2.80,0.5,180.00,
1414967228623,0.00,-1.00,100.00,641.00,212.00,36.00,1477.50,9.00,413.25,4155.00,997.50,17.25,45.34,0.71,25.80,0,6,0,0,750.00,System,2.74,0.98,0.5,180.00,
1414967228777,-1.00,5.00,-100.00,641.00,212.00,36.00,1477.50,9.00,413.25,4155.00,997.50,17.25,41.78,1.19,17.29,0,6,0,0,750.00,System,1.27,4.59,0.5,180.00,
1414967228930,1.00,-1.00,15.82,641.00,212.00,36.00,1477.50,9.00,413.25,4155.00,997.50,17.25,43.30,1.31,21.60,0,5,0,0,750.00,System,1.61,1.58,0.5,180.00,
1414967229081,0.00,-2.00,-100.00,641.00,212.00,36.00,1477.50,9.00,413.25,4155.00,997.50,17.25,43.07,1.06,14.71,0,5,0,0,750.00,System,2.14,1.92,0.5,180.00,
1414967229229,0.00,-2.00,100.00,641.00,212.00,36.00,1477.50,9.00,413.25,4155.00,997.50,17.25,46.52,1.39,28.80,0,5,0,0,750.00,System,2.93,2.54,0.5,180.00,
1414967229381,-1.00,5.00,-100.00,641.00,212.00,36.00,1477.50,9.00,413.25,4155.00,997.50,17.25,43.68,1.23,23.97,0,5,0,0,750.00,System,1.48,5.66,0.5,180.00,
1414967229532,0.00,-4.00,-74.66,641.00,212.00,36.00,1477.50,9.00,413.25,4155.00,997.50,17.25,42.23,1.56,18.59,0,5,0,0,750.00,System,4.67,7.21,0.5,180.00,
1414967229678,-1.00,-3.00,14.92,641.00,212.00,36.00,1477.50,9.00,413.25,4155.00,997.50,17.25,46.12,1.97,21.94,0,6,0,0,750.00,System,4.88,8.78,0.5,180.00,
1414967229837,0.00,-2.00,-100.00,641.00,212.00,36.00,1477.50,9.00,413.25,4155.00,997.50,17.25,44.78,1.80,13.99,0,5,0,0,750.00,System,2.52,3.23,0.5,180.00,
1414967229982,0.00,-3.00,100.00,641.00,212.00,36.00,1477.50,9.00,413.25,4155.00,997.50,17.25,46.23,1.09,25.10,0,5,0,0,750.00,System,3.06,4.69,0.5,180.00,
1414967230138,1.00,5.00,-100.00,641.00,212.00,36.00,1477.50,9.00,413.25,4155.00,997.50,17.25,42.49,0.72,17.40,0,7,0,0,750.00,System,1.70,6.73,0.5,180.00,
1414967230286,1.00,0.00,5.59,641.00,212.00,36.00,1477.50,9.00,413.25,4155.00,997.50,17.25,43.09,1.52,19.17,0,5,0,0,750.00,System,1.61,0.93,0.5,180.00,
1414967230436,-1.00,-1.00,-100.00,641.00,212.00,36.00,1477.50,9.00,413.25,4155.00,997.50,17.25,43.37,1.56,8.24,0,6,0,0,750.00,System,1.93,1.90,0.5,180.00,
1414967230585,-1.00,-3.00,100.00,641.00,212.00,36.00,1477.50,9.00,413.25,4155.00,997.50,17.25,44.57,2.03,19.05,0,5,0,0,750.00,System,1.89,3.79,0.5,180.00,
1414967230744,0.00,4.00,-100.00,641.00,212.00,36.00,1477.50,9.00,413.25,4155.00,997.50,17.25,42.74,2.72,12.43,0,6,0,0,750.00,System,0.66,2.26,0.5,180.00,
1414967230896,0.00,0.00,47.95,641.00,212.00,36.00,1477.50,9.00,413.25,4155.00,997.50,17.25,44.10,2.87,21.01,0,6,0,0,750.00,System,1.02,0.00,0.5,180.00,
1414967231047,1.00,2.00,-100.00,641.00,212.00,36.00,1477.50,9.00,413.25,4155.00,997.50,17.25,45.96,3.01,14.72,0,5,0,0,750.00,System,2.34,2.78,0.5,180.00,
1414967231195,1.00,-1.00,100.00,641.00,212.00,36.00,1477.50,9.00,413.25,4155.00,997.50,17.25,48.42,3.26,26.26,0,6,0,0,750.00,System,2.81,2.44,0.5,180.00,
1414967231346,1.00,7.00,-100.00,641.00,212.00,36.00,1477.50,9.00,413.25,4155.00,997.50,17.25,47.75,1.65,21.84,0,6,0,0,750.00,System,1.36,7.10,0.5,180.00,
1414967231498,-1.00,-3.00,-20.03,641.00,212.00,36.00,1477.50,9.00,413.25,4155.00,997.50,17.25,46.75,1.67,21.83,0,6,0,0,750.00,System,4.04,6.35,0.5,180.00,
1414967231649,0.00,-2.00,-100.00,641.00,212.00,36.00,1477.50,9.00,413.25,4155.00,997.50,17.25,48.51,1.56,13.51,0,5,0,0,750.00,System,3.19,3.18,0.5,180.00,
1414967231797,0.00,-3.00,100.00,641.00,212.00,36.00,1477.50,9.00,413.25,4155.00,997.50,17.25,51.40,1.83,25.66,0,7,0,0,750.00,System,4.29,5.80,0.5,180.00,
1414967232076,-1.00,6.00,-100.00,641.00,212.00,36.00,1477.50,9.00,413.25,4155.00,997.50,17.25,50.31,1.22,20.88,0,6,0,0,750.00,System,1.35,8.08,0.5,180.00,
1414967232105,0.00,-1.00,16.57,641.00,212.00,36.00,1477.50,9.00,413.25,4155.00,997.50,17.25,48.91,1.15,25.04,0,6,0,0,750.00,System,4.03,1.69,0.5,180.00,
1414967232256,0.00,0.00,-100.00,641.00,212.00,36.00,1477.50,9.00,413.25,4155.00,997.50,17.25,47.82,0.88,18.49,0,5,0,0,750.00,System,3.35,0.00,0.5,180.00,
1414967232403,-1.00,-1.00,100.00,641.00,212.00,36.00,1477.50,9.00,413.25,4155.00,997.50,17.25,50.41,1.24,30.09,0,5,0,0,750.00,System,3.37,3.37,0.5,180.00,
1414967232554,-1.00,4.00,-100.00,641.00,212.00,36.00,1477.50,9.00,413.25,4155.00,997.50,17.25,46.89,2.08,25.39,0,5,0,0,750.00,System,1.98,6.27,0.5,180.00,
1414967232706,0.00,-2.00,-79.87,641.00,212.00,36.00,1477.50,9.00,413.25,4155.00,997.50,17.25,47.26,1.45,20.40,0,6,0,0,750.00,System,5.46,4.33,0.5,180.00,
1414967232858,1.00,-2.00,6.71,641.00,212.00,36.00,1477.50,9.00,413.25,4155.00,997.50,17.25,50.58,1.10,22.98,0,5,0,0,750.00,System,3.99,6.18,0.5,180.00,
1414967233009,0.00,-1.00,-100.00,641.00,212.00,36.00,1477.50,9.00,413.25,4155.00,997.50,17.25,49.69,1.22,16.43,0,6,0,0,750.00,System,3.51,1.87,0.5,180.00,
1414967233165,1.00,-2.00,100.00,641.00,212.00,36.00,1477.50,9.00,413.25,4155.00,997.50,17.25,51.01,0.96,26.46,0,7,0,0,750.00,System,4.46,6.28,0.5,180.00,
1414967233311,-1.00,5.00,-100.00,641.00,212.00,36.00,1477.50,9.00,413.25,4155.00,997.50,17.25,48.21,1.12,21.94,0,6,0,0,750.00,System,1.59,7.74,0.5,180.00,
1414967233460,1.00,-2.00,-30.87,641.00,212.00,36.00,1477.50,9.00,413.25,4155.00,997.50,17.25,48.00,1.19,20.64,0,6,0,0,750.00,System,4.14,5.32,0.5,180.00,
1414967233611,1.00,-2.00,-100.00,641.00,212.00,36.00,1477.50,9.00,413.25,4155.00,997.50,17.25,49.71,0.81,13.46,0,5,0,0,750.00,System,2.99,4.81,0.5,180.00,
1414967233767,0.00,-3.00,100.00,641.00,212.00,36.00,1477.50,9.00,413.25,4155.00,997.50,17.25,50.95,1.13,24.65,0,5,0,0,750.00,System,2.92,4.54,0.5,180.00,
1414967233923,-1.00,5.00,-100.00,641.00,212.00,36.00,1477.50,9.00,413.25,4155.00,997.50,17.25,48.45,1.33,18.06,0,6,0,0,750.00,System,3.32,9.62,0.5,180.00,
1414967234074,0.00,0.00,100.00,641.00,212.00,36.00,1477.50,9.00,413.25,4155.00,997.50,17.25,48.13,1.68,29.69,0,6,0,0,750.00,System,3.31,0.00,0.5,180.00,
1414967234222,0.00,6.00,-100.00,641.00,212.00,36.00,1477.50,9.00,413.25,4155.00,997.50,17.25,45.87,1.86,25.20,0,6,0,0,750.00,System,5.08,13.16,0.5,180.00,
1414967234373,1.00,-3.00,-72.84,641.00,212.00,36.00,1477.50,9.00,413.25,4155.00,997.50,17.25,46.64,1.55,19.67,0,6,0,0,750.00,System,5.30,9.90,0.5,180.00,
1414967234528,1.00,-1.00,38.74,641.00,212.00,36.00,1477.50,9.00,413.25,4155.00,997.50,17.25,50.08,1.23,25.52,0,6,0,0,750.00,System,4.69,4.79,0.5,180.00,
1414967234681,1.00,0.00,-100.00,641.00,212.00,36.00,1477.50,9.00,413.25,4155.00,997.50,17.25,48.24,1.97,18.72,0,5,0,0,750.00,System,3.64,2.04,0.5,180.00,
1414967234837,0.00,-2.00,100.00,641.00,212.00,36.00,1477.50,9.00,413.25,4155.00,997.50,17.25,49.52,1.76,29.87,0,6,0,0,750.00,System,4.52,4.35,0.5,180.00,
1414967234984,1.00,6.00,-100.00,641.00,212.00,36.00,1477.50,9.00,413.25,4155.00,997.50,17.25,47.69,-0.05,22.86,0,5,0,0,750.00,System,4.31,15.14,0.5,180.00,
1414967235135,0.00,-1.00,100.00,641.00,212.00,36.00,1477.50,9.00,413.25,4155.00,997.50,17.25,48.15,0.57,27.91,0,5,0,0,750.00,System,4.16,2.11,0.5,180.00,
1414967235287,-1.00,0.00,-100.00,641.00,212.00,36.00,1477.50,9.00,413.25,4155.00,997.50,17.25,42.16,2.48,15.62,0,6,0,0,750.00,System,2.84,1.68,0.5,180.00,
1414967235434,0.00,-4.00,100.00,641.00,212.00,36.00,1477.50,9.00,413.25,4155.00,997.50,17.25,42.18,3.71,16.68,0,6,0,0,750.00,System,4.53,8.17,0.5,180.00,
1414967235586,1.00,2.00,-100.00,641.00,212.00,36.00,1477.50,9.00,413.25,4155.00,997.50,17.25,43.49,3.69,6.02,0,5,0,0,750.00,System,0.60,2.90,0.5,180.00,
1414967235737,0.00,-10.00,-60.76,641.00,212.00,36.00,1477.50,9.00,413.25,4155.00,997.50,17.25,35.66,3.85,-5.81,0,5,0,0,750.00,System,2.31,10.82,0.5,180.00,
1414967235986,0.00,-10.00,-7.91,641.00,212.00,36.00,1477.50,9.00,413.25,4155.00,997.50,17.25,33.24,4.47,-10.09,0,5,0,0,750.00,System,1.05,7.38,0.5,180.00,
1414967236036,0.00,-1.00,100.00,641.00,212.00,36.00,1477.50,9.00,413.25,4155.00,997.50,17.25,31.32,2.45,-1.85,0,5,0,0,750.00,System,0.01,0.28,0.5,180.00,
1414967236192,0.00,6.00,38.08,641.00,212.00,36.00,1477.50,9.00,413.25,4155.00,997.50,17.25,30.09,2.02,8.05,0,6,0,0,750.00,System,0.62,1.80,0.5,180.00,
1414967236344,1.00,9.00,-52.54,641.00,212.00,36.00,1477.50,9.00,413.25,4155.00,997.50,17.25,26.16,1.03,4.74,0,6,0,0,750.00,System,0.31,2.12,0.5,180.00,
1414967236495,0.00,2.00,7.43,641.00,212.00,36.00,1477.50,9.00,413.25,4155.00,997.50,17.25,28.39,1.19,6.27,0,6,0,0,750.00,System,0.13,0.24,0.5,180.00,
1414967236646,-1.00,0.00,-31.78,641.00,212.00,36.00,1477.50,9.00,413.25,4155.00,997.50,17.25,30.33,1.05,2.27,0,6,0,0,750.00,System,0.32,0.14,0.5,180.00,
1414967236802,1.00,-1.00,-0.51,641.00,212.00,36.00,1477.50,9.00,413.25,4155.00,997.50,17.25,30.68,1.11,0.17,0,5,0,0,750.00,System,0.21,0.24,0.5,180.00,
1414967236958,0.00,0.00,24.77,641.00,212.00,36.00,1477.50,9.00,413.25,4155.00,997.50,17.25,31.56,1.31,4.34,0,6,0,0,750.00,System,0.00,0.00,0.5,180.00,
1414967237105,0.00,1.00,-24.74,641.00,212.00,36.00,1477.50,9.00,413.25,4155.00,997.50,17.25,31.67,1.38,2.10,0,6,0,0,750.00,System,0.17,0.07,0.5,180.00,
1414967237261,0.00,-1.00,-4.84,641.00,212.00,36.00,1477.50,9.00,413.25,4155.00,997.50,17.25,31.81,1.40,-0.12,0,6,0,0,750.00,System,0.20,0.09,0.5,180.00,
1414967237415,0.00,-1.00,25.05,641.00,212.00,36.00,1477.50,9.00,413.25,4155.00,997.50,17.25,31.85,1.17,4.35,0,6,0,0,750.00,System,0.00,0.03,0.5,180.00,
1414967237564,0.00,0.00,-11.45,641.00,212.00,36.00,1477.50,9.00,413.25,4155.00,997.50,17.25,32.84,0.97,2.34,0,6,0,0,750.00,System,0.01,0.00,0.5,180.00,
1414967237714,0.00,1.00,5.01,641.00,212.00,36.00,1477.50,9.00,413.25,4155.00,997.50,17.25,33.12,0.73,5.05,0,5,0,0,750.00,System,0.04,0.02,0.5,180.00,
1414967237871,-1.00,-1.00,-18.94,641.00,212.00,36.00,1477.50,9.00,413.25,4155.00,997.50,17.25,33.94,0.70,2.43,0,6,0,0,750.00,System,0.08,0.06,0.5,180.00,
1414967238028,1.00,-1.00,1.83,641.00,212.00,36.00,1477.50,9.00,413.25,4155.00,997.50,17.25,34.20,0.66,3.89,0,7,0,0,750.00,System,0.09,0.08,0.5,180.00,
1414967238178,0.00,-2.00,-16.91,641.00,212.00,36.00,1477.50,9.00,413.25,4155.00,997.50,17.25,34.27,0.64,-0.43,0,6,0,0,750.00,System,0.16,0.13,0.5,180.00,
1414967238334,0.00,1.00,31.92,641.00,212.00,36.00,1477.50,9.00,413.25,4155.00,997.50,17.25,34.33,0.63,3.70,0,6,0,0,750.00,System,0.00,0.02,0.5,180.00,
1414967238489,-1.00,0.00,-19.71,641.00,212.00,36.00,1477.50,9.00,413.25,4155.00,997.50,17.25,35.16,0.18,0.73,0,5,0,0,750.00,System,0.10,0.04,0.5,180.00,
1414967238645,-1.00,1.00,20.94,641.00,212.00,36.00,1477.50,9.00,413.25,4155.00,997.50,17.25,35.81,0.30,4.43,0,6,0,0,750.00,System,0.01,0.03,0.5,180.00,
1414967238801,-1.00,0.00,-27.42,641.00,212.00,36.00,1477.50,9.00,413.25,4155.00,997.50,17.25,36.39,0.38,0.89,0,5,0,0,750.00,System,0.16,0.06,0.5,180.00,
1414967238948,0.00,-1.00,21.44,641.00,212.00,36.00,1477.50,9.00,413.25,4155.00,997.50,17.25,36.33,0.61,4.72,0,5,0,0,750.00,System,0.01,0.02,0.5,180.00,
1414967239104,0.00,-1.00,-14.91,641.00,212.00,36.00,1477.50,9.00,413.25,4155.00,997.50,17.25,35.82,0.42,2.40,0,5,0,0,750.00,System,0.02,0.02,0.5,180.00,
1414967239260,0.00,-1.00,8.14,641.00,212.00,36.00,1477.50,9.00,413.25,4155.00,997.50,17.25,35.84,0.42,4.93,0,6,0,0,750.00,System,0.05,0.02,0.5,180.00,
1414967239415,1.00,1.00,-29.20,641.00,212.00,36.00,1477.50,9.00,413.25,4155.00,997.50,17.25,36.65,0.78,2.11,0,6,0,0,750.00,System,0.26,0.18,0.5,180.00,
1414967239570,1.00,-1.00,4.92,641.00,212.00,36.00,1477.50,9.00,413.25,4155.00,997.50,17.25,37.18,0.80,3.55,0,6,0,0,750.00,System,0.08,0.11,0.5,180.00,
1414967239718,1.00,-1.00,-14.97,641.00,212.00,36.00,1477.50,9.00,413.25,4155.00,997.50,17.25,37.35,0.90,0.13,0,5,0,0,750.00,System,0.12,0.12,0.5,180.00,
1414967239874,0.00,1.00,12.88,641.00,212.00,36.00,1477.50,9.00,413.25,4155.00,997.50,17.25,37.53,0.81,2.27,0,5,0,0,750.00,System,0.08,0.05,0.5,180.00,
1414967240026,0.00,1.00,-5.44,641.00,212.00,36.00,1477.50,9.00,413.25,4155.00,997.50,17.25,38.10,0.87,0.00,0,6,0,0,750.00,System,0.05,0.03,0.5,180.00,
1414967240180,1.00,1.00,26.39,641.00,212.00,36.00,1477.50,9.00,413.25,4155.00,997.50,17.25,37.96,0.81,3.90,0,6,0,0,750.00,System,0.00,0.03,0.5,180.00,
1414967240336,0.00,1.00,-23.18,641.00,212.00,36.00,1477.50,9.00,413.25,4155.00,997.50,17.25,38.61,0.89,1.32,0,6,0,0,750.00,System,0.15,0.05,0.5,180.00,
1414967240489,-1.00,1.00,14.90,641.00,212.00,36.00,1477.50,9.00,413.25,4155.00,997.50,17.25,38.77,0.86,5.55,0,5,0,0,750.00,System,0.01,0.05,0.5,180.00,
1414967240640,1.00,-1.00,-23.83,641.00,212.00,36.00,1477.50,9.00,413.25,4155.00,997.50,17.25,39.88,0.87,4.85,0,5,0,0,750.00,System,0.05,0.05,0.5,180.00,
1414967240799,1.00,-2.00,-20.94,641.00,212.00,36.00,1477.50,9.00,413.25,4155.00,997.50,17.25,40.64,0.70,-0.28,0,6,0,0,750.00,System,0.28,0.28,0.5,180.00,
1414967240952,-1.00,0.00,32.85,641.00,212.00,36.00,1477.50,9.00,413.25,4155.00,997.50,17.25,41.60,0.78,3.33,0,6,0,0,750.00,System,0.00,0.04,0.5,180.00,
1414967241107,0.00,1.00,-17.67,641.00,212.00,36.00,1477.50,9.00,413.25,4155.00,997.50,17.25,41.78,0.58,0.96,0,6,0,0,750.00,System,0.11,0.05,0.5,180.00,
1414967241254,0.00,1.00,13.93,641.00,212.00,36.00,1477.50,9.00,413.25,4155.00,997.50,17.25,41.46,0.66,4.48,0,5,0,0,750.00,System,0.02,0.02,0.5,180.00,
1414967241406,0.00,-1.00,-16.02,641.00,212.00,36.00,1477.50,9.00,413.25,4155.00,997.50,17.25,41.84,0.62,2.27,0,5,0,0,750.00,System,0.03,0.02,0.5,180.00,
1414967241561,0.00,0.00,0.71,641.00,212.00,36.00,1477.50,9.00,413.25,4155.00,997.50,17.25,42.47,0.63,4.28,0,5,0,0,750.00,System,0.12,0.00,0.5,180.00,
1414967241713,0.00,-1.00,-18.51,641.00,212.00,36.00,1477.50,9.00,413.25,4155.00,997.50,17.25,43.15,0.88,1.10,0,5,0,0,750.00,System,0.13,0.06,0.5,180.00,
1414967241868,0.00,1.00,18.48,641.00,212.00,36.00,1477.50,9.00,413.25,4155.00,997.50,17.25,43.75,0.83,4.44,0,7,0,0,750.00,System,0.02,0.03,0.5,180.00,
1414967242019,0.00,0.00,-26.16,641.00,212.00,36.00,1477.50,9.00,413.25,4155.00,997.50,17.25,44.69,0.85,1.50,0,5,0,0,750.00,System,0.16,0.00,0.5,180.00,
1414967242171,0.00,0.00,4.62,641.00,212.00,36.00,1477.50,9.00,413.25,4155.00,997.50,17.25,45.50,0.56,3.64,0,5,0,0,750.00,System,0.12,0.00,0.5,180.00,
1414967242323,0.00,0.00,-19.58,641.00,212.00,36.00,1477.50,9.00,413.25,4155.00,997.50,17.25,45.83,0.78,1.87,0,5,0,0,750.00,System,0.14,0.00,0.5,180.00,
1414967242474,0.00,0.00,0.54,641.00,212.00,36.00,1477.50,9.00,413.25,4155.00,997.50,17.25,46.16,0.86,2.47,0,5,0,0,750.00,System,0.11,0.00,0.5,180.00,
1414967242630,0.00,0.00,-1.83,641.00,212.00,36.00,1477.50,9.00,413.25,4155.00,997.50,17.25,46.86,0.76,0.87,0,6,0,0,750.00,System,0.05,0.00,0.5,180.00,
1414967242778,-1.00,1.00,15.80,641.00,212.00,36.00,1477.50,9.00,413.25,4155.00,997.50,17.25,45.67,0.83,4.20,0,5,0,0,750.00,System,0.01,0.03,0.5,180.00,
1414967242936,0.00,1.00,-5.42,641.00,212.00,36.00,1477.50,9.00,413.25,4155.00,997.50,17.25,45.51,0.82,3.78,0,7,0,0,750.00,System,0.01,0.01,0.5,180.00,
1414967243085,0.00,-1.00,-8.87,641.00,212.00,36.00,1477.50,9.00,413.25,4155.00,997.50,17.25,46.17,0.79,2.81,0,6,0,0,750.00,System,0.13,0.04,0.5,180.00,
1414967243238,-1.00,0.00,-10.49,641.00,212.00,36.00,1477.50,9.00,413.25,4155.00,997.50,17.25,47.01,0.92,1.60,0,5,0,0,750.00,System,0.16,0.07,0.5,180.00,
1414967243405,-1.00,-1.00,5.90,641.00,212.00,36.00,1477.50,9.00,413.25,4155.00,997.50,17.25,47.19,0.87,5.22,0,6,0,0,750.00,System,0.04,0.07,0.5,180.00,
1414967243544,0.00,-2.00,-35.35,641.00,212.00,36.00,1477.50,9.00,413.25,4155.00,997.50,17.25,46.29,1.06,0.09,0,6,0,0,750.00,System,0.29,0.21,0.5,180.00,
1414967243704,0.00,-2.00,3.07,641.00,212.00,36.00,1477.50,9.00,413.25,4155.00,997.50,17.25,43.12,1.25,-0.70,0,5,0,0,750.00,System,0.25,0.23,0.5,180.00,
1414967243847,1.00,3.00,21.45,641.00,212.00,36.00,1477.50,9.00,413.25,4155.00,997.50,17.25,42.47,0.99,3.37,0,6,0,0,750.00,System,0.00,0.18,0.5,180.00,
1414967244005,-1.00,2.00,8.84,641.00,212.00,36.00,1477.50,9.00,413.25,4155.00,997.50,17.25,42.88,1.29,8.45,0,6,0,0,750.00,System,0.02,0.07,0.5,180.00,
1414967244152,-1.00,3.00,-43.06,641.00,212.00,36.00,1477.50,9.00,413.25,4155.00,997.50,17.25,43.67,1.33,6.34,0,5,0,0,750.00,System,0.35,0.46,0.5,180.00,
1414967244309,1.00,-2.00,-28.54,641.00,212.00,36.00,1477.50,9.00,413.25,4155.00,997.50,17.25,44.37,1.14,5.61,0,5,0,0,750.00,System,0.45,0.55,0.5,180.00,
1414967244460,0.00,-4.00,-29.39,641.00,212.00,36.00,1477.50,9.00,413.25,4155.00,997.50,17.25,44.71,1.17,5.07,0,6,0,0,750.00,System,0.34,0.70,0.5,180.00,
1414967244613,1.00,-7.00,-31.52,641.00,212.00,36.00,1477.50,9.00,413.25,4155.00,997.50,17.25,43.06,0.81,0.31,0,6,0,0,750.00,System,0.43,1.60,0.5,180.00,
1414967244768,1.00,-8.00,-47.86,641.00,212.00,36.00,1477.50,9.00,413.25,4155.00,997.50,17.25,40.11,0.42,-10.40,0,6,0,0,750.00,System,1.25,4.16,0.5,180.00,
1414967244922,1.00,-8.00,100.00,641.00,212.00,36.00,1477.50,9.00,413.25,4155.00,997.50,17.25,34.81,-0.04,-5.09,0,6,0,0,750.00,System,0.33,2.51,0.5,180.00,
1414967245067,0.00,5.00,42.76,641.00,212.00,36.00,1477.50,9.00,413.25,4155.00,997.50,17.25,33.90,-0.56,-0.54,0,5,0,0,750.00,System,0.36,1.09,0.5,180.00,
1414967245222,1.00,6.00,57.38,641.00,212.00,36.00,1477.50,9.00,413.25,4155.00,997.50,17.25,33.53,-1.95,8.15,0,6,0,0,750.00,System,0.62,1.92,0.5,180.00,
1414967245375,-1.00,7.00,0.11,641.00,212.00,36.00,1477.50,9.00,413.25,4155.00,997.50,17.25,33.47,-3.47,14.74,0,5,0,0,750.00,System,0.13,1.16,0.5,180.00,
1414967245525,-1.00,2.00,-100.00,641.00,212.00,36.00,1477.50,9.00,413.25,4155.00,997.50,17.25,32.24,-3.63,7.20,0,6,0,0,750.00,System,1.44,1.50,0.5,180.00,
1414967245674,0.00,-5.00,-40.86,641.00,212.00,36.00,1477.50,9.00,413.25,4155.00,997.50,17.25,32.82,-3.32,-2.30,0,5,0,0,750.00,System,1.34,3.03,0.5,180.00,
1414967245839,0.00,-6.00,-3.68,641.00,212.00,36.00,1477.50,9.00,413.25,4155.00,997.50,17.25,33.59,-3.16,-13.87,0,6,0,0,750.00,System,0.85,2.97,0.5,180.00,
1414967245981,-1.00,-5.00,100.00,641.00,212.00,36.00,1477.50,9.00,413.25,4155.00,997.50,17.25,32.33,-2.32,-7.25,0,5,0,0,750.00,System,0.73,2.50,0.5,180.00,
1414967246132,1.00,1.00,-100.00,641.00,212.00,36.00,1477.50,9.00,413.25,4155.00,997.50,17.25,32.97,-1.55,-16.70,0,6,0,0,750.00,System,0.86,0.85,0.5,180.00,
1414967246283,1.00,-6.00,100.00,641.00,212.00,36.00,1477.50,9.00,413.25,4155.00,997.50,17.25,29.67,-1.81,-10.86,0,6,0,0,750.00,System,0.08,1.31,0.5,180.00,
1414967246435,0.00,1.00,-100.00,641.00,212.00,36.00,1477.50,9.00,413.25,4155.00,997.50,17.25,32.07,-2.82,-19.19,0,6,0,0,750.00,System,1.36,0.49,0.5,180.00,
1414967246587,-1.00,-2.00,100.00,641.00,212.00,36.00,1477.50,9.00,413.25,4155.00,997.50,17.25,30.52,-2.37,-11.85,0,5,0,0,750.00,System,0.55,1.07,0.5,180.00,
1414967246735,0.00,2.00,-100.00,641.00,212.00,36.00,1477.50,9.00,413.25,4155.00,997.50,17.25,30.77,-2.40,-15.83,0,5,0,0,750.00,System,1.81,1.39,0.5,180.00,
1414967246885,0.00,1.00,100.00,641.00,212.00,36.00,1477.50,9.00,413.25,4155.00,997.50,17.25,29.13,-1.75,-4.41,0,5,0,0,750.00,System,0.41,0.39,0.5,180.00,
1414967247038,-1.00,9.00,56.55,641.00,212.00,36.00,1477.50,9.00,413.25,4155.00,997.50,17.25,29.15,-1.35,9.57,0,6,0,0,750.00,System,1.47,6.03,0.5,180.00,
1414967247193,0.00,10.00,-1.74,641.00,212.00,36.00,1477.50,9.00,413.25,4155.00,997.50,17.25,25.42,-1.67,12.10,0,6,0,0,750.00,System,0.49,3.83,0.5,180.00,
1414967247341,0.00,1.00,-100.00,641.00,212.00,36.00,1477.50,9.00,413.25,4155.00,997.50,17.25,25.46,-1.65,2.02,0,6,0,0,750.00,System,1.20,0.52,0.5,180.00,
1414967247503,0.00,-7.00,-9.85,641.00,212.00,36.00,1477.50,9.00,413.25,4155.00,997.50,17.25,28.78,-2.29,-5.68,0,7,0,0,750.00,System,1.27,4.12,0.5,180.00,
1414967247647,0.00,-6.00,61.14,641.00,212.00,36.00,1477.50,9.00,413.25,4155.00,997.50,17.25,30.22,-2.18,-2.29,0,6,0,0,750.00,System,0.07,1.49,0.5,180.00,
1414967247803,-1.00,1.00,26.75,641.00,212.00,36.00,1477.50,9.00,413.25,4155.00,997.50,17.25,29.39,-2.01,1.78,0,5,0,0,750.00,System,0.08,0.24,0.5,180.00,
1414967247958,1.00,3.00,-7.56,641.00,212.00,36.00,1477.50,9.00,413.25,4155.00,997.50,17.25,28.56,-1.92,0.67,0,6,0,0,750.00,System,0.04,0.23,0.5,180.00,
1414967248107,0.00,2.00,16.15,641.00,212.00,36.00,1477.50,9.00,413.25,4155.00,997.50,17.25,28.86,-1.88,2.25,0,5,0,0,750.00,System,0.01,0.05,0.5,180.00,
1414967248263,-1.00,1.00,3.47,641.00,212.00,36.00,1477.50,9.00,413.25,4155.00,997.50,17.25,28.21,-1.93,4.07,0,6,0,0,750.00,System,0.01,0.02,0.5,180.00,
1414967248414,0.00,0.00,-19.92,641.00,212.00,36.00,1477.50,9.00,413.25,4155.00,997.50,17.25,27.79,-1.62,1.32,0,6,0,0,750.00,System,0.19,0.00,0.5,180.00,
1414967248565,0.00,1.00,4.21,641.00,212.00,36.00,1477.50,9.00,413.25,4155.00,997.50,17.25,28.44,-1.49,2.83,0,5,0,0,750.00,System,0.13,0.06,0.5,180.00,
1414967248922,0.00,-1.00,-8.42,641.00,212.00,36.00,1477.50,9.00,413.25,4155.00,997.50,17.25,28.39,-1.21,0.96,0,5,0,0,750.00,System,0.09,0.05,0.5,180.00,
1414967248948,0.00,1.00,6.33,641.00,212.00,36.00,1477.50,9.00,413.25,4155.00,997.50,17.25,28.44,-1.02,1.60,0,5,0,0,750.00,System,0.08,0.04,0.5,180.00,
1414967249030,1.00,0.00,4.98,641.00,212.00,36.00,1477.50,9.00,413.25,4155.00,997.50,17.25,28.54,-0.85,3.01,0,5,0,0,750.00,System,0.03,0.02,0.5,180.00,
1414967249176,0.00,-1.00,-8.31,641.00,212.00,36.00,1477.50,9.00,413.25,4155.00,997.50,17.25,28.02,-0.60,0.99,0,6,0,0,750.00,System,0.10,0.04,0.5,180.00,
1414967249336,0.00,1.00,10.07,641.00,212.00,36.00,1477.50,9.00,413.25,4155.00,997.50,17.25,27.97,-0.55,2.83,0,7,0,0,750.00,System,0.09,0.04,0.5,180.00,
1414967249483,-1.00,0.00,-8.13,641.00,212.00,36.00,1477.50,9.00,413.25,4155.00,997.50,17.25,27.59,-0.19,0.36,0,5,0,0,750.00,System,0.07,0.04,0.5,180.00,
1414967249638,-1.00,1.00,16.50,641.00,212.00,36.00,1477.50,9.00,413.25,4155.00,997.50,17.25,27.70,-0.20,3.40,0,5,0,0,750.00,System,0.04,0.06,0.5,180.00,
1414967249785,0.00,-1.00,-14.37,641.00,212.00,36.00,1477.50,9.00,413.25,4155.00,997.50,17.25,27.43,0.05,-0.98,0,5,0,0,750.00,System,0.10,0.04,0.5,180.00,
1414967249942,0.00,1.00,27.56,641.00,212.00,36.00,1477.50,9.00,413.25,4155.00,997.50,17.25,27.66,0.20,1.63,0,6,0,0,750.00,System,0.05,0.03,0.5,180.00,
1414967250097,1.00,2.00,-0.70,641.00,212.00,36.00,1477.50,9.00,413.25,4155.00,997.50,17.25,27.68,0.13,0.08,0,5,0,0,750.00,System,0.03,0.06,0.5,180.00,
1414967250244,1.00,3.00,25.23,641.00,212.00,36.00,1477.50,9.00,413.25,4155.00,997.50,17.25,29.03,0.00,4.00,0,6,0,0,750.00,System,0.00,0.03,0.5,180.00,
1414967250400,0.00,2.00,0.79,641.00,212.00,36.00,1477.50,9.00,413.25,4155.00,997.50,17.25,29.38,0.25,7.95,0,6,0,0,750.00,System,0.00,0.01,0.5,180.00,
1414967250552,0.00,1.00,-40.50,641.00,212.00,36.00,1477.50,9.00,413.25,4155.00,997.50,17.25,29.94,0.36,5.91,0,6,0,0,750.00,System,0.50,0.16,0.5,180.00,
1414967250709,-1.00,-2.00,-32.07,641.00,212.00,36.00,1477.50,9.00,413.25,4155.00,997.50,17.25,30.91,0.44,-1.07,0,6,0,0,750.00,System,0.65,0.78,0.5,180.00,
1414967250862,0.00,-2.00,42.11,641.00,212.00,36.00,1477.50,9.00,413.25,4155.00,997.50,17.25,31.27,0.57,2.76,0,5,0,0,750.00,System,0.00,0.20,0.5,180.00,
1414967251011,0.00,0.00,-10.60,641.00,212.00,36.00,1477.50,9.00,413.25,4155.00,997.50,17.25,31.22,0.17,0.66,0,6,0,0,750.00,System,0.07,0.00,0.5,180.00,
1414967251165,0.00,1.00,14.54,641.00,212.00,36.00,1477.50,9.00,413.25,4155.00,997.50,17.25,31.10,0.14,3.92,0,7,0,0,750.00,System,0.06,0.04,0.5,180.00,
1414967251316,0.00,-1.00,-21.91,641.00,212.00,36.00,1477.50,9.00,413.25,4155.00,997.50,17.25,30.17,0.54,0.56,0,6,0,0,750.00,System,0.18,0.07,0.5,180.00,
1414967251470,0.00,0.00,8.25,641.00,212.00,36.00,1477.50,9.00,413.25,4155.00,997.50,17.25,30.20,0.71,2.01,0,5,0,0,750.00,System,0.13,0.00,0.5,180.00,
1414967251621,-1.00,1.00,-1.47,641.00,212.00,36.00,1477.50,9.00,413.25,4155.00,997.50,17.25,30.07,0.73,1.05,0,6,0,0,750.00,System,0.05,0.08,0.5,180.00,
1414967251773,-1.00,1.00,12.44,641.00,212.00,36.00,1477.50,9.00,413.25,4155.00,997.50,17.25,29.78,0.79,4.39,0,6,0,0,750.00,System,0.03,0.05,0.5,180.00,
1414967251928,0.00,0.00,-25.69,641.00,212.00,36.00,1477.50,9.00,413.25,4155.00,997.50,17.25,29.14,0.79,1.75,0,5,0,0,750.00,System,0.16,0.00,0.5,180.00,
1414967252079,0.00,-1.00,12.89,641.00,212.00,36.00,1477.50,9.00,413.25,4155.00,997.50,17.25,28.98,1.10,6.89,0,6,0,0,750.00,System,0.04,0.03,0.5,180.00,
1414967252231,0.00,-1.00,-38.38,641.00,212.00,36.00,1477.50,9.00,413.25,4155.00,997.50,17.25,29.39,1.07,2.02,0,7,0,0,750.00,System,0.18,0.07,0.5,180.00,
1414967252387,0.00,0.00,17.58,641.00,212.00,36.00,1477.50,9.00,413.25,4155.00,997.50,17.25,30.39,1.28,4.71,0,6,0,0,750.00,System,0.06,0.00,0.5,180.00,
1414967252543,0.00,0.00,-25.30,641.00,212.00,36.00,1477.50,9.00,413.25,4155.00,997.50,17.25,30.14,1.35,0.61,0,6,0,0,750.00,System,0.23,0.00,0.5,180.00,
1414967252701,0.00,0.00,30.31,641.00,212.00,36.00,1477.50,9.00,413.25,4155.00,997.50,17.25,29.92,1.49,4.77,0,4,0,0,750.00,System,0.00,0.00,0.5,180.00,
1414967252845,-1.00,0.00,-28.12,641.00,212.00,36.00,1477.50,9.00,413.25,4155.00,997.50,17.25,30.14,1.25,1.46,0,6,0,0,750.00,System,0.21,0.08,0.5,180.00,
1414967253001,0.00,0.00,2.04,641.00,212.00,36.00,1477.50,9.00,413.25,4155.00,997.50,17.25,29.53,1.43,2.74,0,6,0,0,750.00,System,0.21,0.00,0.5,180.00,
1414967253324,1.00,-1.00,-5.04,641.00,212.00,36.00,1477.50,9.00,413.25,4155.00,997.50,17.25,30.11,1.36,1.20,0,5,0,0,750.00,System,0.07,0.11,0.5,180.00,
1414967253338,0.00,1.00,4.88,641.00,212.00,36.00,1477.50,9.00,413.25,4155.00,997.50,17.25,29.63,1.47,2.70,0,5,0,0,750.00,System,0.08,0.05,0.5,180.00,
1414967253459,0.00,0.00,-7.19,641.00,212.00,36.00,1477.50,9.00,413.25,4155.00,997.50,17.25,29.68,1.37,1.79,0,5,0,0,750.00,System,0.08,0.00,0.5,180.00,
1414967253616,0.00,0.00,8.85,641.00,212.00,36.00,1477.50,9.00,413.25,4155.00,997.50,17.25,28.89,1.32,3.33,0,5,0,0,750.00,System,0.03,0.00,0.5,180.00,
1414967253767,0.00,0.00,-8.97,641.00,212.00,36.00,1477.50,9.00,413.25,4155.00,997.50,17.25,29.47,1.37,1.53,0,6,0,0,750.00,System,0.10,0.00,0.5,180.00,
1414967253923,0.00,1.00,9.59,641.00,212.00,36.00,1477.50,9.00,413.25,4155.00,997.50,17.25,28.83,1.44,3.54,0,5,0,0,750.00,System,0.03,0.03,0.5,180.00,
1414967254073,0.00,0.00,-16.76,641.00,212.00,36.00,1477.50,9.00,413.25,4155.00,997.50,17.25,29.28,1.27,0.99,0,6,0,0,750.00,System,0.17,0.00,0.5,180.00,
1414967254229,0.00,0.00,18.85,641.00,212.00,36.00,1477.50,9.00,413.25,4155.00,997.50,17.25,28.56,1.30,3.56,0,5,0,0,750.00,System,0.01,0.00,0.5,180.00,
1414967254381,0.00,0.00,-13.76,641.00,212.00,36.00,1477.50,9.00,413.25,4155.00,997.50,17.25,28.89,1.21,1.58,0,6,0,0,750.00,System,0.13,0.00,0.5,180.00,
1414967254532,0.00,0.00,1.61,641.00,212.00,36.00,1477.50,9.00,413.25,4155.00,997.50,17.25,28.13,1.20,1.86,0,7,0,0,750.00,System,0.17,0.00,0.5,180.00,
1414967254688,-1.00,1.00,5.94,641.00,212.00,36.00,1477.50,9.00,413.25,4155.00,997.50,17.25,29.32,1.29,3.98,0,6,0,0,750.00,System,0.03,0.07,0.5,180.00,
1414967254845,0.00,0.00,-15.95,641.00,212.00,36.00,1477.50,9.00,413.25,4155.00,997.50,17.25,29.85,0.90,2.14,0,6,0,0,750.00,System,0.16,0.00,0.5,180.00,
1414967254996,0.00,-1.00,8.08,641.00,212.00,36.00,1477.50,9.00,413.25,4155.00,997.50,17.25,29.28,0.95,3.64,0,5,0,0,750.00,System,0.04,0.04,0.5,180.00,
1414967255148,0.00,0.00,-16.77,641.00,212.00,36.00,1477.50,9.00,413.25,4155.00,997.50,17.25,30.13,1.00,1.28,0,5,0,0,750.00,System,0.14,0.00,0.5,180.00,
1414967255299,0.00,0.00,2.41,641.00,212.00,36.00,1477.50,9.00,413.25,4155.00,997.50,17.25,29.25,1.16,1.95,0,6,0,0,750.00,System,0.16,0.00,0.5,180.00,
1414967255450,1.00,0.00,0.93,641.00,212.00,36.00,1477.50,9.00,413.25,4155.00,997.50,17.25,30.72,1.07,2.81,0,5,0,0,750.00,System,0.05,0.04,0.5,180.00,
1414967255606,0.00,0.00,2.23,641.00,212.00,36.00,1477.50,9.00,413.25,4155.00,997.50,17.25,30.26,1.02,3.98,0,7,0,0,750.00,System,0.03,0.00,0.5,180.00,
1414967255753,-1.00,-1.00,-13.15,641.00,212.00,36.00,1477.50,9.00,413.25,4155.00,997.50,17.25,29.99,0.99,1.91,0,6,0,0,750.00,System,0.15,0.11,0.5,180.00,
1414967255908,0.00,0.00,-3.00,641.00,212.00,36.00,1477.50,9.00,413.25,4155.00,997.50,17.25,29.40,0.93,-0.37,0,5,0,0,750.00,System,0.16,0.00,0.5,180.00,
1414967256065,0.00,1.00,30.57,641.00,212.00,36.00,1477.50,9.00,413.25,4155.00,997.50,17.25,29.78,1.02,3.55,0,6,0,0,750.00,System,0.00,0.03,0.5,180.00,
1414967256217,0.00,2.00,-12.59,641.00,212.00,36.00,1477.50,9.00,413.25,4155.00,997.50,17.25,30.96,0.91,2.49,0,5,0,0,750.00,System,0.07,0.06,0.5,180.00,
1414967256371,1.00,1.00,3.63,641.00,212.00,36.00,1477.50,9.00,413.25,4155.00,997.50,17.25,30.39,0.91,3.83,0,5,0,0,750.00,System,0.06,0.06,0.5,180.00,
1414967256519,0.00,0.00,-11.19,641.00,212.00,36.00,1477.50,9.00,413.25,4155.00,997.50,17.25,31.51,0.82,2.59,0,5,0,0,750.00,System,0.11,0.00,0.5,180.00,
1414967256676,0.00,-1.00,-6.77,641.00,212.00,36.00,1477.50,9.00,413.25,4155.00,997.50,17.25,31.14,0.95,1.43,0,5,0,0,750.00,System,0.16,0.07,0.5,180.00,
1414967256831,1.00,1.00,12.14,641.00,212.00,36.00,1477.50,9.00,413.25,4155.00,997.50,17.25,31.49,0.90,3.99,0,6,0,0,750.00,System,0.02,0.06,0.5,180.00,
1414967256985,0.00,0.00,-18.11,641.00,212.00,36.00,1477.50,9.00,413.25,4155.00,997.50,17.25,32.87,0.99,2.24,0,6,0,0,750.00,System,0.17,0.00,0.5,180.00,
1414967257137,-1.00,-1.00,6.59,641.00,212.00,36.00,1477.50,9.00,413.25,4155.00,997.50,17.25,32.17,1.04,3.82,0,6,0,0,750.00,System,0.06,0.09,0.5,180.00,
1414967257291,-1.00,-1.00,-13.40,641.00,212.00,36.00,1477.50,9.00,413.25,4155.00,997.50,17.25,33.50,1.14,1.82,0,6,0,0,750.00,System,0.15,0.12,0.5,180.00,
1414967257442,0.00,0.00,2.98,641.00,212.00,36.00,1477.50,9.00,413.25,4155.00,997.50,17.25,32.91,1.22,3.02,0,5,0,0,750.00,System,0.11,0.00,0.5,180.00,
1414967257593,0.00,0.00,-7.38,641.00,212.00,36.00,1477.50,9.00,413.25,4155.00,997.50,17.25,33.52,1.14,2.10,0,5,0,0,750.00,System,0.08,0.00,0.5,180.00,
1414967257744,0.00,-1.00,-4.39,641.00,212.00,36.00,1477.50,9.00,413.25,4155.00,997.50,17.25,32.84,1.27,1.02,0,6,0,0,750.00,System,0.15,0.06,0.5,180.00,
1414967257966,0.00,1.00,21.49,641.00,212.00,43.00,1477.50,9.00,413.25,4155.00,997.50,17.25,32.58,1.28,4.19,0,5,0,0,750.00,System,0.00,0.02,0.5,180.00,
1414967258104,-1.00,56.00,14.27,641.00,212.00,43.00,1477.50,9.00,413.25,4155.00,997.50,17.25,33.78,1.19,17.52,0,121,0,0,750.00,System,0.22,4.44,0.5,180.00,
1414967258255,0.00,9.00,31.19,641.00,212.00,43.00,1477.50,9.00,413.25,4155.00,997.50,17.25,36.48,-0.49,28.78,0,6,0,0,750.00,System,0.00,0.27,0.5,180.00,
1414967258404,1.00,4.00,-100.00,641.00,212.00,43.00,1477.50,9.00,413.25,4155.00,997.50,17.25,32.70,0.78,17.88,0,5,0,0,750.00,System,1.85,2.91,0.5,180.00,
1414967258555,-1.00,-3.00,100.00,641.00,212.00,43.00,1477.50,9.00,413.25,4155.00,997.50,17.25,30.63,1.91,26.58,0,6,0,0,750.00,System,4.66,6.65,0.5,180.00,
1414967258711,0.00,4.00,-100.00,641.00,212.00,43.00,1477.50,9.00,413.25,4155.00,997.50,17.25,27.31,2.47,17.63,0,6,0,0,750.00,System,1.85,4.83,0.5,180.00,
1414967258864,1.00,-1.00,11.66,641.00,212.00,43.00,1477.50,9.00,413.25,4155.00,997.50,17.25,27.23,2.25,20.65,0,5,0,0,750.00,System,1.84,2.06,0.5,180.00,
1414967259009,-1.00,-2.00,-100.00,641.00,212.00,43.00,1477.50,9.00,413.25,4155.00,997.50,17.25,28.01,2.00,11.92,0,7,0,0,750.00,System,2.82,3.80,0.5,180.00,
1414967259161,-1.00,-3.00,100.00,641.00,212.00,43.00,1477.50,9.00,413.25,4155.00,997.50,17.25,30.59,2.44,23.42,0,5,0,0,750.00,System,2.64,5.19,0.5,180.00,
1414967259317,0.00,5.00,-100.00,641.00,212.00,43.00,1477.50,9.00,413.25,4155.00,997.50,17.25,30.58,2.40,14.54,0,6,0,0,750.00,System,1.06,4.12,0.5,180.00,
1414967259467,-1.00,-2.00,54.98,641.00,212.00,43.00,1477.50,9.00,413.25,4155.00,997.50,17.25,31.76,2.42,22.46,0,5,0,0,750.00,System,1.21,2.06,0.5,180.00,
