time,READ Read_LMO,READ Read_RMO,READ Read_anglePIDOutput,READ Read_APIDKp,READ Read_APIDKi,READ Read_APIDKd,READ Read_APIDAggKp,READ Read_APIDAggKi,READ Read_APIDAggKd,READ Read_SPIDKp,READ Read_SPIDKi,READ Read_SPIDKd,READ Read_Yaw,READ Read_Roll,READ Read_Pitch,READ Read_MotorsON,READ Read_LoopT,READ Read_SetsteerGain,READ Read_SetthrottleGain,READ Read_TriggerAngleAggressive,READ Read_Info,READ Read_ISTE,READ Read_BAL,READ FirmwareVersion,READ Read_calibratedZeroAngle,READ RAD,
1414695731454,1.00,0.00,-1.70,728.00,0.00,0.00,0.00,0.00,0.00,0.00,0.00,0.00,5.77,1.19,0.25,False,6,0,0,750.00,System,0.00,0.00,0.5,0.00,Read_SPIDKp,
1414695731478,1.00,0.00,-1.70,728.00,0.00,0.00,0.00,0.00,0.00,0.00,0.00,0.00,5.77,1.19,0.23,False,6,0,0,750.00,System,0.00,0.00,0.5,0.00,Read_SPIDKp,
1414695731717,-1.00,0.00,-1.59,728.00,0.00,0.00,0.00,0.00,0.00,0.00,0.00,0.00,5.78,1.21,0.22,False,5,0,0,750.00,System,0.00,0.00,0.5,0.00,Read_SPIDKp,
1414695731896,1.00,0.00,-1.47,728.00,0.00,0.00,0.00,0.00,0.00,0.00,0.00,0.00,5.80,1.19,0.24,False,1,0,0,750.00,System,0.00,0.00,0.5,0.00,Read_SPIDKp,
1414695732373,-1.00,0.00,-1.64,728.00,0.00,0.00,0.00,0.00,0.00,0.00,0.00,0.00,5.87,1.18,0.26,False,5,0,0,750.00,System,0.00,0.00,0.5,0.00,Read_SPIDKp,
1414695732529,0.00,0.00,-1.78,728.00,0.00,0.00,0.00,0.00,0.00,0.00,0.00,0.00,5.88,1.17,0.28,False,1,0,0,750.00,System,0.00,0.00,0.5,0.00,Read_SPIDKp,
1414695732681,1.00,0.00,-1.90,728.00,0.00,0.00,0.00,0.00,0.00,0.00,0.00,0.00,5.88,1.16,0.27,False,5,0,0,750.00,System,0.00,0.00,0.5,0.00,Read_SPIDKp,
1414695732851,-1.00,0.00,-1.89,728.00,0.00,0.00,0.00,0.00,0.00,0.00,0.00,0.00,5.90,1.18,0.29,False,7,0,0,750.00,System,0.00,0.00,0.5,0.00,Read_SPIDKp,
1414695733006,1.00,0.00,-1.98,728.00,0.00,0.00,0.00,0.00,0.00,0.00,0.00,0.00,5.90,1.15,0.26,False,5,0,0,750.00,System,0.00,0.00,0.5,0.00,Read_SPIDKp,
1414695733165,-1.00,0.00,-1.78,728.00,0.00,0.00,0.00,0.00,0.00,0.00,0.00,0.00,5.91,1.13,0.28,False,5,0,0,750.00,System,0.00,0.00,0.5,0.00,Read_SPIDKp,
1414695733692,1.00,0.00,-1.94,728.00,0.00,0.00,0.00,0.00,0.00,0.00,0.00,0.00,5.95,1.16,0.29,False,1,0,0,750.00,System,0.00,0.00,0.5,0.00,Read_SPIDKp,
1414695733839,1.00,0.00,-2.02,728.00,0.00,0.00,0.00,0.00,0.00,0.00,0.00,0.00,5.98,1.18,0.30,False,1,0,0,750.00,System,0.00,0.00,0.5,0.00,Read_SPIDKp,
1414695733977,-1.00,0.00,-2.07,728.00,0.00,0.00,0.00,0.00,0.00,0.00,0.00,0.00,5.98,1.17,0.33,False,5,0,0,750.00,System,0.00,0.00,0.5,0.00,Read_SPIDKp,
1414695734262,-1.00,0.00,-2.27,728.00,0.00,0.00,0.00,0.00,0.00,0.00,0.00,0.00,5.98,1.17,0.35,False,6,0,0,750.00,System,0.00,0.00,0.5,0.00,Read_SPIDKp,
1414695734398,1.00,0.00,-2.45,728.00,0.00,0.00,0.00,0.00,0.00,0.00,0.00,0.00,5.99,1.19,0.33,False,1,0,0,750.00,System,0.00,0.00,0.5,0.00,Read_SPIDKp,
1414695734677,1.00,0.00,-2.27,728.00,0.00,0.00,0.00,0.00,0.00,0.00,0.00,0.00,6.00,1.21,0.31,False,5,0,0,750.00,System,0.00,0.00,0.5,0.00,Read_SPIDKp,
1414695734809,1.00,0.00,-2.14,728.00,0.00,0.00,0.00,0.00,0.00,0.00,0.00,0.00,5.99,1.19,0.32,False,5,0,0,750.00,System,0.00,0.00,0.5,0.00,Read_SPIDKp,
1414695734948,1.00,0.00,-2.21,728.00,0.00,0.00,0.00,0.00,0.00,0.00,0.00,0.00,6.03,1.17,0.33,False,5,0,0,750.00,System,0.00,0.00,0.5,0.00,Read_SPIDKp,
1414695735048,1.00,0.00,-2.26,728.00,0.00,0.00,0.00,0.00,0.00,0.00,0.00,0.00,6.06,1.19,0.34,False,6,0,0,750.00,System,0.00,0.00,0.5,0.00,Read_SPIDKp,
1414695735194,-1.00,0.00,-2.33,728.00,0.00,0.00,0.00,0.00,0.00,0.00,0.00,0.00,6.06,1.20,0.33,False,5,0,0,750.00,System,0.00,0.00,0.5,0.00,Read_SPIDKp,
1414695735338,1.00,0.00,-2.26,728.00,0.00,0.00,0.00,0.00,0.00,0.00,0.00,0.00,6.07,1.22,0.32,False,5,0,0,750.00,System,0.00,0.00,0.5,0.00,Read_SPIDKp,
1414695735470,-1.00,0.00,-2.23,728.00,0.00,0.00,0.00,0.00,0.00,0.00,0.00,0.00,6.07,1.20,0.31,False,6,0,0,750.00,System,0.00,0.00,0.5,0.00,Read_SPIDKp,
1414695735753,0.00,0.00,-2.13,728.00,0.00,0.00,0.00,0.00,0.00,0.00,0.00,0.00,6.11,1.19,0.43,False,5,0,0,750.00,System,0.00,0.00,0.5,0.00,Read_SPIDKp,
1414695735890,-1.00,0.00,-2.65,728.00,0.00,0.00,0.00,0.00,0.00,0.00,0.00,0.00,6.73,1.45,0.75,False,5,0,0,750.00,System,0.00,0.00,0.5,0.00,Read_SPIDKp,
1414695736036,-1.00,0.00,-4.81,728.00,0.00,0.00,0.00,0.00,0.00,0.00,0.00,0.00,6.08,1.07,4.31,False,5,0,0,750.00,System,0.00,0.00,0.5,0.00,Read_SPIDKp,
1414695736175,-1.00,0.00,-29.62,728.00,0.00,0.00,0.00,0.00,0.00,0.00,0.00,0.00,5.97,1.28,8.49,False,5,0,0,750.00,System,0.09,0.03,0.5,0.00,Read_SPIDKp,
1414695736311,-1.00,0.00,0.11,728.00,0.00,0.00,0.00,0.00,0.00,0.00,0.00,0.00,5.93,1.19,10.40,False,6,0,0,750.00,System,0.42,0.14,0.5,0.00,Read_SPIDKp,
1414695736452,1.00,0.00,0.11,728.00,0.00,0.00,0.00,0.00,0.00,0.00,0.00,0.00,5.92,1.11,10.70,False,5,0,0,750.00,System,0.54,0.22,0.5,0.00,Read_SPIDKp,
1414695736592,-1.00,0.00,0.11,728.00,0.00,0.00,0.00,0.00,0.00,0.00,0.00,0.00,5.62,1.11,10.65,False,5,0,0,750.00,System,0.57,0.26,0.5,0.00,Read_SPIDKp,
1414695736701,1.00,0.00,0.11,728.00,0.00,0.00,0.00,0.00,0.00,0.00,0.00,0.00,6.31,1.09,6.75,False,5,0,0,750.00,System,0.57,0.28,0.5,0.00,Read_SPIDKp,
1414695736846,-1.00,0.00,-51.79,728.00,0.00,0.00,0.00,0.00,0.00,0.00,0.00,0.00,6.32,1.15,3.31,False,5,0,0,750.00,System,0.24,0.18,0.5,0.00,Read_SPIDKp,
1414695736981,1.00,0.00,-25.38,728.00,0.00,0.00,0.00,0.00,0.00,0.00,0.00,0.00,6.35,1.20,0.52,False,5,0,0,750.00,System,0.06,0.09,0.5,0.00,Read_SPIDKp,
1414695737127,0.00,0.00,-5.38,728.00,0.00,0.00,0.00,0.00,0.00,0.00,0.00,0.00,5.67,1.22,0.40,False,1,0,0,750.00,System,0.00,0.00,0.5,0.00,Read_SPIDKp,
1414695737274,1.00,0.00,-2.93,728.00,0.00,0.00,0.00,0.00,0.00,0.00,0.00,0.00,6.86,1.12,0.35,False,5,0,0,750.00,System,0.00,0.01,0.5,0.00,Read_SPIDKp,
1414695737410,-1.00,0.00,-2.41,728.00,0.00,0.00,0.00,0.00,0.00,0.00,0.00,0.00,6.58,1.12,0.39,False,6,0,0,750.00,System,0.00,0.01,0.5,0.00,Read_SPIDKp,
1414695737557,0.00,0.00,-2.70,728.00,0.00,0.00,0.00,0.00,0.00,0.00,0.00,0.00,6.67,1.14,0.40,False,1,0,0,750.00,System,0.00,0.00,0.5,0.00,Read_SPIDKp,
1414695737700,1.00,0.00,-2.77,728.00,0.00,0.00,0.00,0.00,0.00,0.00,0.00,0.00,6.69,1.14,0.38,False,0,0,0,750.00,System,0.00,0.00,0.5,0.00,Read_SPIDKp,
1414695737839,1.00,0.00,-2.64,728.00,0.00,0.00,0.00,0.00,0.00,0.00,0.00,0.00,6.71,1.14,0.39,False,0,0,0,750.00,System,0.00,0.00,0.5,0.00,Read_SPIDKp,
1414695738110,1.00,0.00,-2.71,728.00,0.00,0.00,0.00,0.00,0.00,0.00,0.00,0.00,6.78,1.16,0.37,False,5,0,0,750.00,System,0.00,0.00,0.5,0.00,Read_SPIDKp,
1414695738250,-1.00,0.00,-2.57,728.00,0.00,0.00,0.00,0.00,0.00,0.00,0.00,0.00,6.77,1.14,2.87,False,5,0,0,750.00,System,0.00,0.00,0.5,0.00,Read_SPIDKp,
1414695738354,1.00,0.00,-19.54,728.00,0.00,0.00,0.00,0.00,0.00,0.00,0.00,0.00,7.13,1.16,7.68,False,5,0,0,750.00,System,0.04,0.01,0.5,0.00,Read_SPIDKp,
1414695738507,-1.00,1.00,-52.54,728.00,0.00,0.00,0.00,0.00,0.00,0.00,0.00,0.00,8.16,1.01,11.80,False,5,0,0,750.00,System,0.28,0.18,0.5,0.00,Read_SPIDKp,
1414695738649,-1.00,0.00,0.11,728.00,0.00,0.00,0.00,0.00,0.00,0.00,0.00,0.00,8.12,0.94,14.05,False,6,0,0,750.00,System,0.82,0.29,0.5,0.00,Read_SPIDKp,
1414695738786,1.00,0.00,0.11,728.00,0.00,0.00,0.00,0.00,0.00,0.00,0.00,0.00,8.14,0.94,14.88,False,6,0,0,750.00,System,1.17,0.47,0.5,0.00,Read_SPIDKp,
1414695738937,-1.00,0.00,0.11,728.00,0.00,0.00,0.00,0.00,0.00,0.00,0.00,0.00,8.14,0.92,14.66,False,6,0,0,750.00,System,1.32,0.59,0.5,0.00,Read_SPIDKp,
1414695739078,1.00,0.00,0.11,728.00,0.00,0.00,0.00,0.00,0.00,0.00,0.00,0.00,8.13,0.90,14.61,False,5,0,0,750.00,System,1.08,0.56,0.5,0.00,Read_SPIDKp,
1414695739225,-1.00,0.00,0.11,728.00,0.00,0.00,0.00,0.00,0.00,0.00,0.00,0.00,8.15,0.87,14.48,False,5,0,0,750.00,System,1.07,0.54,0.5,0.00,Read_SPIDKp,
1414695739369,1.00,0.00,0.11,728.00,0.00,0.00,0.00,0.00,0.00,0.00,0.00,0.00,8.26,0.89,11.60,False,5,0,0,750.00,System,1.05,0.53,0.5,0.00,Read_SPIDKp,
1414695739508,-1.00,0.00,0.11,728.00,0.00,0.00,0.00,0.00,0.00,0.00,0.00,0.00,8.30,0.93,8.43,False,5,0,0,750.00,System,0.69,0.42,0.5,0.00,Read_SPIDKp,
1414695739642,1.00,0.00,0.11,728.00,0.00,0.00,0.00,0.00,0.00,0.00,0.00,0.00,8.46,1.01,5.38,False,6,0,0,750.00,System,0.44,0.29,0.5,0.00,Read_SPIDKp,
1414695739786,-1.00,0.00,-40.89,728.00,0.00,0.00,0.00,0.00,0.00,0.00,0.00,0.00,8.47,1.05,4.27,False,5,0,0,750.00,System,0.15,0.16,0.5,0.00,Read_SPIDKp,
1414695739922,-1.00,0.00,-31.41,728.00,0.00,0.00,0.00,0.00,0.00,0.00,0.00,0.00,8.42,1.06,3.48,False,5,0,0,750.00,System,0.09,0.09,0.5,0.00,Read_SPIDKp,
1414695740026,1.00,0.00,-25.81,728.00,0.00,0.00,0.00,0.00,0.00,0.00,0.00,0.00,8.40,1.08,2.42,False,5,0,0,750.00,System,0.06,0.05,0.5,0.00,Read_SPIDKp,
1414695740173,-1.00,0.00,-18.01,728.00,0.00,0.00,0.00,0.00,0.00,0.00,0.00,0.00,8.35,1.09,1.13,False,5,0,0,750.00,System,0.03,0.03,0.5,0.00,Read_SPIDKp,
1414695740305,1.00,0.00,-8.58,728.00,0.00,0.00,0.00,0.00,0.00,0.00,0.00,0.00,8.10,1.11,1.01,False,5,0,0,750.00,System,0.01,0.01,0.5,0.00,Read_SPIDKp,
1414695740456,-1.00,0.00,-7.31,728.00,0.00,0.00,0.00,0.00,0.00,0.00,0.00,0.00,8.50,1.13,1.20,False,5,0,0,750.00,System,0.01,0.01,0.5,0.00,Read_SPIDKp,
1414695740677,1.00,0.00,-8.50,728.00,0.00,0.00,0.00,0.00,0.00,0.00,0.00,0.00,8.57,1.17,2.27,False,6,0,0,750.00,System,0.01,0.01,0.5,0.00,Read_SPIDKp,
1414695741014,-1.00,0.00,-15.92,728.00,0.00,0.00,0.00,0.00,0.00,0.00,0.00,0.00,8.11,1.21,5.01,False,5,0,0,750.00,System,0.02,0.01,0.5,0.00,Read_SPIDKp,
1414695741166,1.00,0.00,-34.28,728.00,0.00,0.00,0.00,0.00,0.00,0.00,0.00,0.00,8.21,1.17,9.41,False,5,0,0,750.00,System,0.12,0.04,0.5,0.00,Read_SPIDKp,
1414695741309,-1.00,0.00,0.11,728.00,0.00,0.00,0.00,0.00,0.00,0.00,0.00,0.00,9.15,0.99,13.61,False,5,0,0,750.00,System,0.43,0.15,0.5,0.00,Read_SPIDKp,
1414695741444,1.00,0.00,0.11,728.00,0.00,0.00,0.00,0.00,0.00,0.00,0.00,0.00,9.04,0.92,16.98,False,5,0,0,750.00,System,0.91,0.34,0.5,0.00,Read_SPIDKp,
1414695741590,-1.00,0.00,0.11,728.00,0.00,0.00,0.00,0.00,0.00,0.00,0.00,0.00,9.02,0.87,18.32,False,5,0,0,750.00,System,1.42,0.57,0.5,0.00,Read_SPIDKp,
1414695741732,1.00,0.00,0.11,728.00,0.00,0.00,0.00,0.00,0.00,0.00,0.00,0.00,9.00,0.83,16.02,False,5,0,0,750.00,System,1.67,0.73,0.5,0.00,Read_SPIDKp,
1414695741872,-1.00,0.00,0.11,728.00,0.00,0.00,0.00,0.00,0.00,0.00,0.00,0.00,9.08,0.90,12.01,False,5,0,0,750.00,System,1.30,0.68,0.5,0.00,Read_SPIDKp,
1414695741975,1.00,0.00,0.11,728.00,0.00,0.00,0.00,0.00,0.00,0.00,0.00,0.00,9.14,0.97,9.68,False,5,0,0,750.00,System,0.74,0.49,0.5,0.00,Read_SPIDKp,
1414695742122,-1.00,0.00,0.11,728.00,0.00,0.00,0.00,0.00,0.00,0.00,0.00,0.00,9.23,1.00,7.61,False,6,0,0,750.00,System,0.57,0.36,0.5,0.00,Read_SPIDKp,
1414695742416,1.00,0.00,0.11,728.00,0.00,0.00,0.00,0.00,0.00,0.00,0.00,0.00,9.24,1.05,7.05,False,5,0,0,750.00,System,0.29,0.23,0.5,0.00,Read_SPIDKp,
1414695742558,-1.00,0.00,-51.24,728.00,0.00,0.00,0.00,0.00,0.00,0.00,0.00,0.00,9.08,1.07,9.39,False,5,0,0,750.00,System,0.25,0.16,0.5,0.00,Read_SPIDKp,
1414695742692,1.00,0.00,0.11,728.00,0.00,0.00,0.00,0.00,0.00,0.00,0.00,0.00,9.17,1.03,13.83,False,5,0,0,750.00,System,0.43,0.20,0.5,0.00,Read_SPIDKp,
1414695742839,-1.00,0.00,0.11,728.00,0.00,0.00,0.00,0.00,0.00,0.00,0.00,0.00,9.10,0.92,19.23,False,5,0,0,750.00,System,0.93,0.36,0.5,0.00,Read_SPIDKp,
1414695742983,1.00,0.00,0.11,728.00,0.00,0.00,0.00,0.00,0.00,0.00,0.00,0.00,9.02,0.78,23.57,False,5,0,0,750.00,System,1.82,0.70,0.5,0.00,Read_SPIDKp,
1414695743261,1.00,0.00,0.11,728.00,0.00,0.00,0.00,0.00,0.00,0.00,0.00,0.00,10.86,0.68,18.49,False,6,0,0,750.00,System,3.35,1.46,0.5,0.00,Read_SPIDKp,
1414695743416,-1.00,0.00,0.11,728.00,0.00,0.00,0.00,0.00,0.00,0.00,0.00,0.00,10.19,0.75,11.94,False,5,0,0,750.00,System,1.74,1.10,0.5,0.00,Read_SPIDKp,
1414695743549,1.00,-1.00,0.11,728.00,0.00,0.00,0.00,0.00,0.00,0.00,0.00,0.00,9.71,0.90,5.80,False,5,0,0,750.00,System,0.74,1.29,0.5,0.00,Read_SPIDKp,
1414695743690,1.00,-2.00,-45.96,728.00,0.00,0.00,0.00,0.00,0.00,0.00,0.00,0.00,7.28,1.06,2.28,False,5,0,0,750.00,System,0.18,0.91,0.5,0.00,Read_SPIDKp,
1414695743907,1.00,-1.00,-17.71,728.00,0.00,0.00,0.00,0.00,0.00,0.00,0.00,0.00,4.19,1.17,2.69,False,6,0,0,750.00,System,0.03,0.25,0.5,0.00,Read_SPIDKp,
1414695744351,-1.00,0.00,-19.01,728.00,0.00,0.00,0.00,0.00,0.00,0.00,0.00,0.00,3.76,1.21,4.96,False,5,0,0,750.00,System,0.04,0.06,0.5,0.00,Read_SPIDKp,
1414695744491,1.00,0.00,-34.29,728.00,0.00,0.00,0.00,0.00,0.00,0.00,0.00,0.00,3.95,1.14,8.40,False,5,0,0,750.00,System,0.12,0.06,0.5,0.00,Read_SPIDKp,
1414695744637,-1.00,0.00,0.11,728.00,0.00,0.00,0.00,0.00,0.00,0.00,0.00,0.00,4.06,1.07,12.02,False,6,0,0,750.00,System,0.41,0.15,0.5,0.00,Read_SPIDKp,
1414695744783,1.00,0.00,0.11,728.00,0.00,0.00,0.00,0.00,0.00,0.00,0.00,0.00,4.11,0.99,15.49,False,5,0,0,750.00,System,0.71,0.28,0.5,0.00,Read_SPIDKp,
1414695744920,1.00,1.00,0.11,728.00,0.00,0.00,0.00,0.00,0.00,0.00,0.00,0.00,4.25,0.93,18.28,False,5,0,0,750.00,System,1.18,0.94,0.5,0.00,Read_SPIDKp,
1414695745067,-1.00,0.00,0.11,728.00,0.00,0.00,0.00,0.00,0.00,0.00,0.00,0.00,4.29,0.89,19.56,False,6,0,0,750.00,System,1.98,0.79,0.5,0.00,Read_SPIDKp,
1414695745217,1.00,0.00,0.11,728.00,0.00,0.00,0.00,0.00,0.00,0.00,0.00,0.00,5.09,0.84,17.23,False,6,0,0,750.00,System,2.29,1.01,0.5,0.00,Read_SPIDKp,
1414695745349,1.00,0.00,0.11,728.00,0.00,0.00,0.00,0.00,0.00,0.00,0.00,0.00,5.04,0.90,13.99,False,5,0,0,750.00,System,1.50,0.85,0.5,0.00,Read_SPIDKp,
1414695745492,-1.00,0.00,0.11,728.00,0.00,0.00,0.00,0.00,0.00,0.00,0.00,0.00,5.15,0.93,10.96,False,5,0,0,750.00,System,0.99,0.63,0.5,0.00,Read_SPIDKp,
1414695745632,1.00,0.00,0.11,728.00,0.00,0.00,0.00,0.00,0.00,0.00,0.00,0.00,5.24,1.02,8.59,False,6,0,0,750.00,System,0.73,0.47,0.5,0.00,Read_SPIDKp,
1414695745768,-1.00,0.00,0.11,728.00,0.00,0.00,0.00,0.00,0.00,0.00,0.00,0.00,5.25,1.05,6.48,False,5,0,0,750.00,System,0.38,0.29,0.5,0.00,Read_SPIDKp,
1414695746002,-1.00,0.00,-47.99,728.00,0.00,0.00,0.00,0.00,0.00,0.00,0.00,0.00,5.25,1.07,4.75,False,6,0,0,750.00,System,0.26,0.19,0.5,0.00,Read_SPIDKp,
1414695746182,1.00,0.00,-35.52,728.00,0.00,0.00,0.00,0.00,0.00,0.00,0.00,0.00,4.71,1.10,4.42,False,5,0,0,750.00,System,0.11,0.11,0.5,0.00,Read_SPIDKp,
1414695746319,-1.00,0.00,-32.11,728.00,0.00,0.00,0.00,0.00,0.00,0.00,0.00,0.00,4.72,1.11,4.64,False,6,0,0,750.00,System,0.12,0.08,0.5,0.00,Read_SPIDKp,
1414695746466,1.00,0.00,-33.49,728.00,0.00,0.00,0.00,0.00,0.00,0.00,0.00,0.00,4.74,1.13,5.12,False,5,0,0,750.00,System,0.11,0.06,0.5,0.00,Read_SPIDKp,
1414695746602,-1.00,0.00,-36.78,728.00,0.00,0.00,0.00,0.00,0.00,0.00,0.00,0.00,4.69,1.10,8.41,False,6,0,0,750.00,System,0.16,0.07,0.5,0.00,Read_SPIDKp,
1414695746752,1.00,0.00,0.11,728.00,0.00,0.00,0.00,0.00,0.00,0.00,0.00,0.00,4.85,1.03,12.69,False,6,0,0,750.00,System,0.41,0.15,0.5,0.00,Read_SPIDKp,
1414695746895,-1.00,0.00,0.11,728.00,0.00,0.00,0.00,0.00,0.00,0.00,0.00,0.00,4.98,0.97,15.04,False,5,0,0,750.00,System,0.79,0.30,0.5,0.00,Read_SPIDKp,
1414695747033,-1.00,0.00,0.11,728.00,0.00,0.00,0.00,0.00,0.00,0.00,0.00,0.00,4.93,0.90,13.36,False,5,0,0,750.00,System,1.12,0.46,0.5,0.00,Read_SPIDKp,
1414695747297,1.00,0.00,0.11,728.00,0.00,0.00,0.00,0.00,0.00,0.00,0.00,0.00,4.88,0.93,9.97,False,5,0,0,750.00,System,0.90,0.46,0.5,0.00,Read_SPIDKp,
1414695747643,-1.00,0.00,0.11,728.00,0.00,0.00,0.00,0.00,0.00,0.00,0.00,0.00,4.94,0.96,7.09,False,5,0,0,750.00,System,0.51,0.33,0.5,0.00,Read_SPIDKp,
1414695747781,1.00,0.00,-53.35,728.00,0.00,0.00,0.00,0.00,0.00,0.00,0.00,0.00,4.96,1.00,4.97,False,5,0,0,750.00,System,0.26,0.21,0.5,0.00,Read_SPIDKp,
1414695747924,-1.00,0.00,-37.43,728.00,0.00,0.00,0.00,0.00,0.00,0.00,0.00,0.00,4.95,1.06,3.25,False,5,0,0,750.00,System,0.13,0.12,0.5,0.00,Read_SPIDKp,
1414695748029,1.00,0.00,-24.17,728.00,0.00,0.00,0.00,0.00,0.00,0.00,0.00,0.00,4.43,1.05,3.14,False,5,0,0,750.00,System,0.05,0.06,0.5,0.00,Read_SPIDKp,
1414695748185,-1.00,0.00,-22.54,728.00,0.00,0.00,0.00,0.00,0.00,0.00,0.00,0.00,4.26,1.06,5.38,False,5,0,0,750.00,System,0.05,0.04,0.5,0.00,Read_SPIDKp,
1414695748319,1.00,0.00,-38.05,728.00,0.00,0.00,0.00,0.00,0.00,0.00,0.00,0.00,4.32,1.04,8.51,False,5,0,0,750.00,System,0.14,0.06,0.5,0.00,Read_SPIDKp,
1414695748463,-1.00,0.00,0.11,728.00,0.00,0.00,0.00,0.00,0.00,0.00,0.00,0.00,4.44,0.99,11.70,False,5,0,0,750.00,System,0.35,0.13,0.5,0.00,Read_SPIDKp,
1414695748691,1.00,0.00,0.11,728.00,0.00,0.00,0.00,0.00,0.00,0.00,0.00,0.00,4.55,0.93,13.88,False,5,0,0,750.00,System,0.67,0.26,0.5,0.00,Read_SPIDKp,
1414695748842,-1.00,0.00,0.11,728.00,0.00,0.00,0.00,0.00,0.00,0.00,0.00,0.00,4.63,0.90,12.85,False,5,0,0,750.00,System,0.96,0.39,0.5,0.00,Read_SPIDKp,
1414695748994,1.00,0.00,0.11,728.00,0.00,0.00,0.00,0.00,0.00,0.00,0.00,0.00,4.58,0.93,9.57,False,5,0,0,750.00,System,0.83,0.41,0.5,0.00,Read_SPIDKp,
1414695749144,-1.00,0.00,0.11,728.00,0.00,0.00,0.00,0.00,0.00,0.00,0.00,0.00,4.55,1.02,6.82,False,6,0,0,750.00,System,0.56,0.33,0.5,0.00,Read_SPIDKp,
1414695749279,1.00,0.00,-50.55,728.00,0.00,0.00,0.00,0.00,0.00,0.00,0.00,0.00,4.61,1.03,5.53,False,5,0,0,750.00,System,0.24,0.20,0.5,0.00,Read_SPIDKp,
1414695749423,-1.00,0.00,-40.97,728.00,0.00,0.00,0.00,0.00,0.00,0.00,0.00,0.00,4.66,1.02,5.65,False,6,0,0,750.00,System,0.19,0.13,0.5,0.00,Read_SPIDKp,
1414695749565,1.00,0.00,-40.61,728.00,0.00,0.00,0.00,0.00,0.00,0.00,0.00,0.00,4.42,1.03,8.69,False,5,0,0,750.00,System,0.16,0.10,0.5,0.00,Read_SPIDKp,
1414695749697,-1.00,0.00,0.11,728.00,0.00,0.00,0.00,0.00,0.00,0.00,0.00,0.00,4.59,0.94,12.19,False,5,0,0,750.00,System,0.37,0.15,0.5,0.00,Read_SPIDKp,
1414695749803,1.00,0.00,0.11,728.00,0.00,0.00,0.00,0.00,0.00,0.00,0.00,0.00,4.63,0.87,14.31,False,5,0,0,750.00,System,0.73,0.28,0.5,0.00,Read_SPIDKp,
1414695749939,-1.00,0.00,0.11,728.00,0.00,0.00,0.00,0.00,0.00,0.00,0.00,0.00,4.84,0.79,12.88,False,6,0,0,750.00,System,1.22,0.49,0.5,0.00,Read_SPIDKp,
1414695750086,1.00,1.00,0.11,728.00,0.00,0.00,0.00,0.00,0.00,0.00,0.00,0.00,5.33,0.77,9.48,False,6,0,0,750.00,System,1.01,0.99,0.5,0.00,Read_SPIDKp,
1414695750231,-1.00,0.00,0.11,728.00,0.00,0.00,0.00,0.00,0.00,0.00,0.00,0.00,5.28,0.86,7.28,False,5,0,0,750.00,System,0.46,0.33,0.5,0.00,Read_SPIDKp,
1414695750368,1.00,0.00,-53.62,728.00,0.00,0.00,0.00,0.00,0.00,0.00,0.00,0.00,5.27,0.94,7.22,False,6,0,0,750.00,System,0.32,0.23,0.5,0.00,Read_SPIDKp,
1414695750511,-1.00,0.00,-52.33,728.00,0.00,0.00,0.00,0.00,0.00,0.00,0.00,0.00,5.34,0.95,7.80,False,5,0,0,750.00,System,0.26,0.17,0.5,0.00,Read_SPIDKp,
1414695750662,1.00,0.00,0.11,728.00,0.00,0.00,0.00,0.00,0.00,0.00,0.00,0.00,5.35,0.88,8.09,False,5,0,0,750.00,System,0.30,0.16,0.5,0.00,Read_SPIDKp,
1414695750963,-1.00,0.00,0.11,728.00,0.00,0.00,0.00,0.00,0.00,0.00,0.00,0.00,5.36,0.92,7.84,False,5,0,0,750.00,System,0.33,0.16,0.5,0.00,Read_SPIDKp,
1414695751539,-1.00,0.00,0.11,728.00,0.00,0.00,0.00,0.00,0.00,0.00,0.00,0.00,5.36,0.91,7.06,False,5,0,0,750.00,System,0.31,0.16,0.5,0.00,Read_SPIDKp,
1414695751743,1.00,0.00,-51.87,728.00,0.00,0.00,0.00,0.00,0.00,0.00,0.00,0.00,5.29,0.95,6.04,False,5,0,0,750.00,System,0.25,0.14,0.5,0.00,Read_SPIDKp,
1414695751872,-1.00,0.00,-44.50,728.00,0.00,0.00,0.00,0.00,0.00,0.00,0.00,0.00,5.24,0.94,5.54,False,5,0,0,750.00,System,0.18,0.11,0.5,0.00,Read_SPIDKp,
1414695752007,1.00,0.00,-40.42,728.00,0.00,0.00,0.00,0.00,0.00,0.00,0.00,0.00,4.80,0.94,6.98,False,6,0,0,750.00,System,0.18,0.10,0.5,0.00,Read_SPIDKp,
1414695752103,-1.00,0.00,-49.63,728.00,0.00,0.00,0.00,0.00,0.00,0.00,0.00,0.00,4.87,0.92,8.40,False,5,0,0,750.00,System,0.24,0.11,0.5,0.00,Read_SPIDKp,
1414695752238,1.00,0.00,0.11,728.00,0.00,0.00,0.00,0.00,0.00,0.00,0.00,0.00,4.84,1.05,10.74,False,5,0,0,750.00,System,0.35,0.15,0.5,0.00,Read_SPIDKp,
1414695752369,-1.00,0.00,0.11,728.00,0.00,0.00,0.00,0.00,0.00,0.00,0.00,0.00,4.86,0.97,12.57,False,6,0,0,750.00,System,0.68,0.27,0.5,0.00,Read_SPIDKp,
1414695752517,1.00,0.00,0.11,728.00,0.00,0.00,0.00,0.00,0.00,0.00,0.00,0.00,4.84,0.89,14.18,False,5,0,0,750.00,System,0.78,0.34,0.5,0.00,Read_SPIDKp,
1414695752920,-1.00,0.00,0.11,728.00,0.00,0.00,0.00,0.00,0.00,0.00,0.00,0.00,4.90,0.85,16.40,False,5,0,0,750.00,System,1.00,0.44,0.5,0.00,Read_SPIDKp,
1414695753211,-1.00,0.00,0.11,728.00,0.00,0.00,0.00,0.00,0.00,0.00,0.00,0.00,6.10,0.82,18.60,False,5,0,0,750.00,System,1.00,0.44,0.5,0.00,Read_SPIDKp,
1414695753457,1.00,0.00,0.11,728.00,0.00,0.00,0.00,0.00,0.00,0.00,0.00,0.00,6.60,0.80,20.32,False,5,0,0,750.00,System,1.71,0.69,0.5,0.00,Read_SPIDKp,
1414695753589,-1.00,0.00,0.11,728.00,0.00,0.00,0.00,0.00,0.00,0.00,0.00,0.00,6.52,0.78,19.90,False,5,0,0,750.00,System,2.06,0.90,0.5,0.00,Read_SPIDKp,
1414695753723,1.00,0.00,0.11,728.00,0.00,0.00,0.00,0.00,0.00,0.00,0.00,0.00,6.34,0.82,17.77,False,5,0,0,750.00,System,1.98,0.96,0.5,0.00,Read_SPIDKp,
1414695753861,1.00,0.00,0.11,728.00,0.00,0.00,0.00,0.00,0.00,0.00,0.00,0.00,6.10,0.91,13.76,False,6,0,0,750.00,System,1.91,0.96,0.5,0.00,Read_SPIDKp,
1414695754017,-1.00,0.00,0.11,728.00,0.00,0.00,0.00,0.00,0.00,0.00,0.00,0.00,5.98,0.99,9.89,False,5,0,0,750.00,System,0.97,0.66,0.5,0.00,Read_SPIDKp,
1414695754161,1.00,0.00,0.11,728.00,0.00,0.00,0.00,0.00,0.00,0.00,0.00,0.00,5.96,1.05,6.96,False,6,0,0,750.00,System,0.60,0.44,0.5,0.00,Read_SPIDKp,
1414695754300,-1.00,0.00,-52.31,728.00,0.00,0.00,0.00,0.00,0.00,0.00,0.00,0.00,5.98,1.11,5.62,False,5,0,0,750.00,System,0.25,0.24,0.5,0.00,Read_SPIDKp,
1414695754561,1.00,0.00,-41.60,728.00,0.00,0.00,0.00,0.00,0.00,0.00,0.00,0.00,6.02,1.12,5.13,False,5,0,0,750.00,System,0.16,0.14,0.5,0.00,Read_SPIDKp,
1414695755063,-1.00,0.00,-37.41,728.00,0.00,0.00,0.00,0.00,0.00,0.00,0.00,0.00,6.15,1.17,5.60,False,6,0,0,750.00,System,0.16,0.10,0.5,0.00,Read_SPIDKp,
1414695755462,1.00,0.00,-40.30,728.00,0.00,0.00,0.00,0.00,0.00,0.00,0.00,0.00,6.22,1.17,6.90,False,5,0,0,750.00,System,0.16,0.09,0.5,0.00,Read_SPIDKp,
1414695755602,-1.00,0.00,-49.37,728.00,0.00,0.00,0.00,0.00,0.00,0.00,0.00,0.00,6.18,1.14,10.53,False,6,0,0,750.00,System,0.28,0.12,0.5,0.00,Read_SPIDKp,
1414695755736,1.00,0.00,0.11,728.00,0.00,0.00,0.00,0.00,0.00,0.00,0.00,0.00,6.18,1.08,13.70,False,5,0,0,750.00,System,0.54,0.21,0.5,0.00,Read_SPIDKp,
1414695755837,-1.00,0.00,0.11,728.00,0.00,0.00,0.00,0.00,0.00,0.00,0.00,0.00,6.38,0.98,15.79,False,5,0,0,750.00,System,0.92,0.37,0.5,0.00,Read_SPIDKp,
1414695755977,1.00,0.00,0.11,728.00,0.00,0.00,0.00,0.00,0.00,0.00,0.00,0.00,6.41,0.92,16.63,False,6,0,0,750.00,System,1.48,0.60,0.5,0.00,Read_SPIDKp,
1414695756123,-1.00,0.00,0.11,728.00,0.00,0.00,0.00,0.00,0.00,0.00,0.00,0.00,6.41,0.87,17.65,False,5,0,0,750.00,System,1.38,0.65,0.5,0.00,Read_SPIDKp,
1414695756273,-1.00,0.00,0.11,728.00,0.00,0.00,0.00,0.00,0.00,0.00,0.00,0.00,6.45,0.84,16.75,False,5,0,0,750.00,System,1.55,0.73,0.5,0.00,Read_SPIDKp,
1414695756408,1.00,0.00,0.11,728.00,0.00,0.00,0.00,0.00,0.00,0.00,0.00,0.00,6.87,0.82,13.13,False,5,0,0,750.00,System,1.41,0.71,0.5,0.00,Read_SPIDKp,
