time,READ Read_APIDKp,READ Read_APIDKi,READ Read_LMO,READ Read_RMO,READ Read_anglePIDOutput,READ Read_APIDKd,READ Read_APIDAggKp,READ Read_APIDAggKi,READ Read_APIDAggKd,READ Read_SPIDKp,READ Read_SPIDKi,READ Read_SPIDKd,READ Read_Yaw,READ Read_Roll,READ Read_Pitch,READ Read_MotorsON,READ Read_LoopT,READ Read_SetsteerGain,READ Read_SetthrottleGain,READ Read_TriggerAngleAggressive,READ Read_Info,READ Read_ISTE,READ Read_Pitch,READ Read_calibratedZeroAngle,
1414279489069,-1.00,0.00,-1.79,868.00,395.00,34.00,1970.00,16.00,551.00,5668.00,0.00,50.00,-16.83,0.75,1.45,False,6,0,0,750.00,System,0.04,180.00,
1414279489210,-1.00,0.00,-10.22,868.00,395.00,34.00,1970.00,16.00,551.00,5668.00,0.00,50.00,-16.68,0.65,1.73,False,6,0,0,750.00,System,0.10,180.00,
1414279489349,-1.00,-2.00,-16.78,868.00,395.00,34.00,1970.00,16.00,551.00,5668.00,0.00,50.00,-16.88,0.57,1.50,False,7,0,0,750.00,System,0.23,180.00,
1414279489502,1.00,-1.00,-24.82,868.00,395.00,34.00,1970.00,16.00,551.00,5668.00,0.00,50.00,-17.34,0.70,0.65,False,7,0,0,750.00,System,0.21,180.00,
1414279489660,1.00,-2.00,2.65,868.00,395.00,34.00,1970.00,16.00,551.00,5668.00,0.00,50.00,-17.57,0.77,1.40,False,6,0,0,750.00,System,0.16,180.00,
1414279489805,-1.00,-4.00,-9.59,868.00,395.00,34.00,1970.00,16.00,551.00,5668.00,0.00,50.00,-17.25,0.82,-0.02,False,5,0,0,750.00,System,0.12,180.00,
1414279489957,-1.00,-5.00,-5.31,868.00,395.00,34.00,1970.00,16.00,551.00,5668.00,0.00,50.00,-17.46,0.82,-0.04,False,5,0,0,750.00,System,0.08,180.00,
1414279490109,1.00,-1.00,-7.26,868.00,395.00,34.00,1970.00,16.00,551.00,5668.00,0.00,50.00,-16.96,0.78,1.02,False,6,0,0,750.00,System,0.07,180.00,
1414279490263,1.00,0.00,-0.16,868.00,395.00,34.00,1970.00,16.00,551.00,5668.00,0.00,50.00,-16.55,0.66,2.03,False,6,0,0,750.00,System,0.09,180.00,
1414279490623,1.00,-3.00,-14.75,868.00,395.00,34.00,1970.00,16.00,551.00,5668.00,0.00,50.00,-16.93,0.77,0.83,False,6,0,0,750.00,System,0.22,180.00,
1414279490654,-1.00,-4.00,1.41,868.00,395.00,34.00,1970.00,16.00,551.00,5668.00,0.00,50.00,-17.57,0.89,0.43,False,7,0,0,750.00,System,0.14,180.00,
1414279490781,-1.00,-3.00,-2.67,868.00,395.00,34.00,1970.00,16.00,551.00,5668.00,0.00,50.00,-17.90,1.02,0.76,False,6,0,0,750.00,System,0.07,180.00,
1414279490874,1.00,-1.00,-9.25,868.00,395.00,34.00,1970.00,16.00,551.00,5668.00,0.00,50.00,-18.09,1.02,0.96,False,6,0,0,750.00,System,0.10,180.00,
1414279491048,1.00,0.00,-5.14,868.00,395.00,34.00,1970.00,16.00,551.00,5668.00,0.00,50.00,-18.37,1.11,0.56,False,6,0,0,750.00,System,0.06,180.00,
1414279491225,-1.00,-1.00,0.83,868.00,395.00,34.00,1970.00,16.00,551.00,5668.00,0.00,50.00,-18.84,0.96,1.67,False,6,0,0,750.00,System,0.11,180.00,
1414279491374,1.00,-2.00,-7.15,868.00,395.00,34.00,1970.00,16.00,551.00,5668.00,0.00,50.00,-17.99,0.91,0.07,False,6,0,0,750.00,System,0.14,180.00,
1414279491529,-1.00,-1.00,8.34,868.00,395.00,34.00,1970.00,16.00,551.00,5668.00,0.00,50.00,-17.74,1.09,0.22,False,6,0,0,750.00,System,0.02,180.00,
1414279491705,1.00,0.00,10.34,868.00,395.00,34.00,1970.00,16.00,551.00,5668.00,0.00,50.00,-18.12,1.15,1.02,False,5,0,0,750.00,System,0.06,180.00,
1414279491878,-1.00,0.00,16.12,868.00,395.00,34.00,1970.00,16.00,551.00,5668.00,0.00,50.00,-18.19,0.78,2.21,False,6,0,0,750.00,System,0.05,180.00,
1414279492036,-1.00,0.00,2.24,868.00,395.00,34.00,1970.00,16.00,551.00,5668.00,0.00,50.00,-18.41,0.82,2.16,False,5,0,0,750.00,System,0.08,180.00,
1414279492193,1.00,-1.00,-12.10,868.00,395.00,34.00,1970.00,16.00,551.00,5668.00,0.00,50.00,-18.25,1.00,0.78,False,5,0,0,750.00,System,0.12,180.00,
1414279492349,-1.00,0.00,14.20,868.00,395.00,34.00,1970.00,16.00,551.00,5668.00,0.00,50.00,-18.05,0.88,0.98,False,6,0,0,750.00,System,0.00,180.00,
1414279492505,1.00,1.00,13.09,868.00,395.00,34.00,1970.00,16.00,551.00,5668.00,0.00,50.00,-17.80,1.02,0.82,False,6,0,0,750.00,System,0.00,180.00,
1414279492672,-1.00,1.00,31.63,868.00,395.00,34.00,1970.00,16.00,551.00,5668.00,0.00,50.00,-18.44,0.95,1.33,False,5,0,0,750.00,System,0.01,180.00,
1414279492824,-1.00,3.00,19.81,868.00,395.00,34.00,1970.00,16.00,551.00,5668.00,0.00,50.00,-19.00,0.99,1.46,False,6,0,0,750.00,System,0.00,180.00,
1414279493019,-1.00,5.00,51.89,868.00,395.00,34.00,1970.00,16.00,551.00,5668.00,0.00,50.00,-20.46,1.04,3.04,False,14,0,0,750.00,System,0.00,180.00,
1414279493140,-1.00,4.00,-6.07,868.00,395.00,34.00,1970.00,16.00,551.00,5668.00,0.00,50.00,-21.77,0.93,1.95,False,8,0,0,750.00,System,0.07,180.00,
1414279493299,1.00,1.00,18.45,868.00,395.00,34.00,1970.00,16.00,551.00,5668.00,0.00,50.00,-23.89,0.58,2.48,False,6,0,0,750.00,System,0.05,180.00,
1414279493462,1.00,2.00,6.95,868.00,395.00,34.00,1970.00,16.00,551.00,5668.00,0.00,50.00,-26.02,0.79,1.89,False,6,0,0,750.00,System,0.10,180.00,
1414279493618,-1.00,3.00,29.79,868.00,395.00,34.00,1970.00,16.00,551.00,5668.00,0.00,50.00,-27.50,0.93,2.07,False,6,0,0,750.00,System,0.02,180.00,
1414279493773,1.00,2.00,19.32,868.00,395.00,34.00,1970.00,16.00,551.00,5668.00,0.00,50.00,-28.19,0.90,2.59,False,5,0,0,750.00,System,0.06,180.00,
1414279493938,-1.00,2.00,11.55,868.00,395.00,34.00,1970.00,16.00,551.00,5668.00,0.00,50.00,-28.37,1.23,2.30,False,6,0,0,750.00,System,0.09,180.00,
1414279494099,-1.00,1.00,13.16,868.00,395.00,34.00,1970.00,16.00,551.00,5668.00,0.00,50.00,-28.21,1.39,2.54,False,6,0,0,750.00,System,0.05,180.00,
1414279494254,1.00,1.00,-12.33,868.00,395.00,34.00,1970.00,16.00,551.00,5668.00,0.00,50.00,-28.71,1.25,1.64,False,6,0,0,750.00,System,0.13,180.00,
1414279494405,-1.00,0.00,8.81,868.00,395.00,34.00,1970.00,16.00,551.00,5668.00,0.00,50.00,-29.29,1.28,1.77,False,6,0,0,750.00,System,0.09,180.00,
1414279494584,1.00,0.00,9.52,868.00,395.00,34.00,1970.00,16.00,551.00,5668.00,0.00,50.00,-30.14,1.23,1.86,False,5,0,0,750.00,System,0.06,180.00,
1414279494729,-1.00,0.00,5.62,868.00,395.00,34.00,1970.00,16.00,551.00,5668.00,0.00,50.00,-30.72,1.08,2.12,False,6,0,0,750.00,System,0.11,180.00,
1414279494900,1.00,1.00,4.82,868.00,395.00,34.00,1970.00,16.00,551.00,5668.00,0.00,50.00,-30.88,1.12,2.19,False,5,0,0,750.00,System,0.04,180.00,
1414279495047,1.00,-2.00,-12.10,868.00,395.00,34.00,1970.00,16.00,551.00,5668.00,0.00,50.00,-30.61,1.11,1.37,False,6,0,0,750.00,System,0.20,180.00,
1414279495203,1.00,0.00,2.20,868.00,395.00,34.00,1970.00,16.00,551.00,5668.00,0.00,50.00,-30.76,1.23,1.62,False,7,0,0,750.00,System,0.08,180.00,
1414279495355,1.00,2.00,13.90,868.00,395.00,34.00,1970.00,16.00,551.00,5668.00,0.00,50.00,-30.93,1.25,2.47,False,5,0,0,750.00,System,0.09,180.00,
1414279495515,-1.00,-1.00,4.60,868.00,395.00,34.00,1970.00,16.00,551.00,5668.00,0.00,50.00,-30.77,1.22,3.18,False,5,0,0,750.00,System,0.07,180.00,
1414279495663,1.00,-2.00,-31.34,868.00,395.00,34.00,1970.00,16.00,551.00,5668.00,0.00,50.00,-30.42,1.20,2.68,False,6,0,0,750.00,System,0.23,180.00,
1414279495825,-1.00,-2.00,-32.22,868.00,395.00,34.00,1970.00,16.00,551.00,5668.00,0.00,50.00,-30.93,1.12,2.57,False,7,0,0,750.00,System,0.27,180.00,
1414279495972,-1.00,-3.00,-2.29,868.00,395.00,34.00,1970.00,16.00,551.00,5668.00,0.00,50.00,-31.28,1.04,1.54,False,54,0,0,750.00,System,1.05,180.00,
1414279496133,1.00,-2.00,-0.23,868.00,395.00,34.00,1970.00,16.00,551.00,5668.00,0.00,50.00,-31.22,0.87,1.44,False,5,0,0,750.00,System,0.18,180.00,
1414279496286,-1.00,-3.00,-7.51,868.00,395.00,34.00,1970.00,16.00,551.00,5668.00,0.00,50.00,-30.59,0.80,0.86,False,5,0,0,750.00,System,0.15,180.00,
1414279496449,1.00,-2.00,-14.11,868.00,395.00,34.00,1970.00,16.00,551.00,5668.00,0.00,50.00,-30.05,0.74,0.89,False,6,0,0,750.00,System,0.09,180.00,
1414279496727,-1.00,-1.00,-6.62,868.00,395.00,34.00,1970.00,16.00,551.00,5668.00,0.00,50.00,-30.00,0.64,0.83,False,6,0,0,750.00,System,0.03,180.00,
1414279496835,1.00,0.00,5.97,868.00,395.00,34.00,1970.00,16.00,551.00,5668.00,0.00,50.00,-29.97,0.65,1.40,False,5,0,0,750.00,System,0.07,180.00,
1414279496903,1.00,1.00,12.82,868.00,395.00,34.00,1970.00,16.00,551.00,5668.00,0.00,50.00,-30.27,0.75,1.80,False,6,0,0,750.00,System,0.06,180.00,
1414279497070,-1.00,-1.00,-6.27,868.00,395.00,34.00,1970.00,16.00,551.00,5668.00,0.00,50.00,-30.91,0.85,1.49,False,5,0,0,750.00,System,0.05,180.00,
1414279497240,-1.00,0.00,16.12,868.00,395.00,34.00,1970.00,16.00,551.00,5668.00,0.00,50.00,-31.09,0.67,2.20,False,6,0,0,750.00,System,0.05,180.00,
1414279497395,-1.00,0.00,-1.57,868.00,395.00,34.00,1970.00,16.00,551.00,5668.00,0.00,50.00,-31.22,0.68,1.74,False,5,0,0,750.00,System,0.07,180.00,
1414279497644,1.00,-1.00,-5.44,868.00,395.00,34.00,1970.00,16.00,551.00,5668.00,0.00,50.00,-31.91,0.73,1.28,False,5,0,0,750.00,System,0.10,180.00,
1414279497707,-1.00,-2.00,13.33,868.00,395.00,34.00,1970.00,16.00,551.00,5668.00,0.00,50.00,-31.83,0.92,1.94,False,9,0,0,750.00,System,0.06,180.00,
1414279497873,1.00,-2.00,-26.18,868.00,395.00,34.00,1970.00,16.00,551.00,5668.00,0.00,50.00,-31.58,0.86,1.88,False,10,0,0,750.00,System,0.19,180.00,
1414279498016,-1.00,-2.00,-15.50,868.00,395.00,34.00,1970.00,16.00,551.00,5668.00,0.00,50.00,-31.54,0.80,-0.20,False,6,0,0,750.00,System,0.12,180.00,
1414279498181,-1.00,2.00,15.05,868.00,395.00,34.00,1970.00,16.00,551.00,5668.00,0.00,50.00,-31.53,0.95,1.06,False,6,0,0,750.00,System,0.01,180.00,
1414279498356,1.00,1.00,2.44,868.00,395.00,34.00,1970.00,16.00,551.00,5668.00,0.00,50.00,-31.76,0.83,1.92,False,6,0,0,750.00,System,0.01,180.00,
1414279498497,-1.00,0.00,0.34,868.00,395.00,34.00,1970.00,16.00,551.00,5668.00,0.00,50.00,-31.45,0.74,1.38,False,5,0,0,750.00,System,0.04,180.00,
1414279498686,1.00,2.00,-36.67,868.00,395.00,34.00,1970.00,16.00,551.00,5668.00,0.00,50.00,-31.90,0.52,0.61,False,5,0,0,750.00,System,0.00,180.00,
1414279498835,1.00,5.00,19.20,868.00,395.00,34.00,1970.00,16.00,551.00,5668.00,0.00,50.00,-32.57,0.80,1.91,False,6,0,0,750.00,System,0.00,180.00,
1414279498994,1.00,3.00,30.24,868.00,395.00,34.00,1970.00,16.00,551.00,5668.00,0.00,50.00,-33.18,0.99,3.57,False,6,0,0,750.00,System,0.04,180.00,
1414279499154,-1.00,4.00,6.15,868.00,395.00,34.00,1970.00,16.00,551.00,5668.00,0.00,50.00,-33.47,1.35,4.00,False,5,0,0,750.00,System,0.00,180.00,
1414279499313,1.00,-1.00,5.01,868.00,395.00,34.00,1970.00,16.00,551.00,5668.00,0.00,50.00,-33.84,1.46,3.25,False,5,0,0,750.00,System,0.18,180.00,
1414279499461,-1.00,-3.00,-14.87,868.00,395.00,34.00,1970.00,16.00,551.00,5668.00,0.00,50.00,-33.56,1.50,2.31,False,14,0,0,750.00,System,0.67,180.00,
1414279499619,1.00,-1.00,-18.38,868.00,395.00,34.00,1970.00,16.00,551.00,5668.00,0.00,50.00,-32.92,1.40,2.09,False,6,0,0,750.00,System,0.14,180.00,
1414279499770,1.00,-2.00,-4.89,868.00,395.00,34.00,1970.00,16.00,551.00,5668.00,0.00,50.00,-32.72,1.38,1.95,False,5,0,0,750.00,System,0.06,180.00,
1414279499927,-1.00,-1.00,-12.58,868.00,395.00,34.00,1970.00,16.00,551.00,5668.00,0.00,50.00,-32.88,1.35,1.82,False,5,0,0,750.00,System,0.05,180.00,
1414279500085,-1.00,-1.00,-7.49,868.00,395.00,34.00,1970.00,16.00,551.00,5668.00,0.00,50.00,-32.61,1.37,1.99,False,5,0,0,750.00,System,0.04,180.00,
1414279500252,1.00,-1.00,-13.50,868.00,395.00,34.00,1970.00,16.00,551.00,5668.00,0.00,50.00,-32.35,1.36,1.44,False,5,0,0,750.00,System,0.07,180.00,
1414279500405,1.00,1.00,-1.08,868.00,395.00,34.00,1970.00,16.00,551.00,5668.00,0.00,50.00,-32.54,1.39,1.25,False,6,0,0,750.00,System,0.08,180.00,
1414279500585,1.00,0.00,8.32,868.00,395.00,34.00,1970.00,16.00,551.00,5668.00,0.00,50.00,-32.69,1.31,2.52,False,6,0,0,750.00,System,0.08,180.00,
1414279500722,1.00,-1.00,-22.74,868.00,395.00,34.00,1970.00,16.00,551.00,5668.00,0.00,50.00,-31.79,1.33,1.09,False,5,0,0,750.00,System,0.10,180.00,
1414279500879,1.00,-1.00,2.11,868.00,395.00,34.00,1970.00,16.00,551.00,5668.00,0.00,50.00,-31.30,1.25,0.49,False,5,0,0,750.00,System,0.02,180.00,
1414279501032,-1.00,3.00,35.11,868.00,395.00,34.00,1970.00,16.00,551.00,5668.00,0.00,50.00,-30.99,1.39,1.25,False,6,0,0,750.00,System,0.02,180.00,
1414279501188,1.00,3.00,21.24,868.00,395.00,34.00,1970.00,16.00,551.00,5668.00,0.00,50.00,-29.92,1.42,2.69,False,5,0,0,750.00,System,0.01,180.00,
1414279501367,1.00,3.00,0.48,868.00,395.00,34.00,1970.00,16.00,551.00,5668.00,0.00,50.00,-29.79,1.36,2.87,False,5,0,0,750.00,System,0.02,180.00,
1414279501534,1.00,4.00,6.19,868.00,395.00,34.00,1970.00,16.00,551.00,5668.00,0.00,50.00,-29.74,1.27,3.79,False,6,0,0,750.00,System,0.02,180.00,
1414279501663,-1.00,1.00,41.11,868.00,395.00,34.00,1970.00,16.00,551.00,5668.00,0.00,50.00,-30.14,1.22,3.24,False,6,0,0,750.00,System,0.16,180.00,
1414279501835,1.00,2.00,17.04,868.00,395.00,34.00,1970.00,16.00,551.00,5668.00,0.00,50.00,-30.40,1.31,2.47,False,7,0,0,750.00,System,0.16,180.00,
1414279501985,-1.00,1.00,14.08,868.00,395.00,34.00,1970.00,16.00,551.00,5668.00,0.00,50.00,-30.81,1.33,2.30,False,7,0,0,750.00,System,0.17,180.00,
1414279502141,1.00,4.00,17.36,868.00,395.00,34.00,1970.00,16.00,551.00,5668.00,0.00,50.00,-31.31,1.23,3.13,False,6,0,0,750.00,System,0.01,180.00,
1414279502299,1.00,4.00,24.68,868.00,395.00,34.00,1970.00,16.00,551.00,5668.00,0.00,50.00,-32.31,1.27,3.91,False,5,0,0,750.00,System,0.00,180.00,
1414279502445,-1.00,3.00,29.82,868.00,395.00,34.00,1970.00,16.00,551.00,5668.00,0.00,50.00,-33.22,1.36,3.87,False,6,0,0,750.00,System,0.07,180.00,
1414279502608,1.00,2.00,24.54,868.00,395.00,34.00,1970.00,16.00,551.00,5668.00,0.00,50.00,-34.60,1.45,3.32,False,5,0,0,750.00,System,0.10,180.00,
1414279502771,-1.00,1.00,29.48,868.00,395.00,34.00,1970.00,16.00,551.00,5668.00,0.00,50.00,-35.79,1.38,2.75,False,6,0,0,750.00,System,0.05,180.00,
1414279502930,1.00,3.00,29.58,868.00,395.00,34.00,1970.00,16.00,551.00,5668.00,0.00,50.00,-36.88,1.40,3.40,False,6,0,0,750.00,System,0.07,180.00,
1414279503104,1.00,2.00,13.61,868.00,395.00,34.00,1970.00,16.00,551.00,5668.00,0.00,50.00,-37.97,1.24,2.88,False,6,0,0,750.00,System,0.10,180.00,
1414279503254,1.00,1.00,-0.29,868.00,395.00,34.00,1970.00,16.00,551.00,5668.00,0.00,50.00,-39.12,1.14,1.80,False,5,0,0,750.00,System,0.11,180.00,
1414279503428,-1.00,3.00,25.51,868.00,395.00,34.00,1970.00,16.00,551.00,5668.00,0.00,50.00,-39.55,1.20,2.69,False,6,0,0,750.00,System,0.01,180.00,
1414279503607,1.00,3.00,22.12,868.00,395.00,34.00,1970.00,16.00,551.00,5668.00,0.00,50.00,-40.02,1.11,3.04,False,5,0,0,750.00,System,0.04,180.00,
1414279503731,-1.00,1.00,16.41,868.00,395.00,34.00,1970.00,16.00,551.00,5668.00,0.00,50.00,-40.73,0.76,2.72,False,5,0,0,750.00,System,0.08,180.00,
1414279503918,1.00,0.00,5.56,868.00,395.00,34.00,1970.00,16.00,551.00,5668.00,0.00,50.00,-41.35,0.83,2.52,False,5,0,0,750.00,System,0.13,180.00,
1414279504066,1.00,3.00,3.90,868.00,395.00,34.00,1970.00,16.00,551.00,5668.00,0.00,50.00,-41.66,0.80,5.41,False,5,0,0,750.00,System,0.04,180.00,
1414279504218,-1.00,-1.00,-9.64,868.00,395.00,34.00,1970.00,16.00,551.00,5668.00,0.00,50.00,-43.20,0.94,4.15,False,5,0,0,750.00,System,0.31,180.00,
1414279504374,1.00,-2.00,-18.34,868.00,395.00,34.00,1970.00,16.00,551.00,5668.00,0.00,50.00,-43.32,0.91,3.10,False,6,0,0,750.00,System,0.34,180.00,
1414279504554,1.00,-1.00,-18.61,868.00,395.00,34.00,1970.00,16.00,551.00,5668.00,0.00,50.00,-43.86,0.81,2.03,False,5,0,0,750.00,System,0.20,180.00,
1414279504699,1.00,-1.00,3.25,868.00,395.00,34.00,1970.00,16.00,551.00,5668.00,0.00,50.00,-43.77,0.84,2.88,False,5,0,0,750.00,System,0.14,180.00,
1414279504856,-1.00,-3.00,-16.03,868.00,395.00,34.00,1970.00,16.00,551.00,5668.00,0.00,50.00,-44.44,0.74,1.03,False,5,0,0,750.00,System,0.19,180.00,
1414279505028,1.00,-4.00,-5.86,868.00,395.00,34.00,1970.00,16.00,551.00,5668.00,0.00,50.00,-45.38,0.98,0.41,False,5,0,0,750.00,System,0.17,180.00,
1414279505180,-1.00,1.00,2.28,868.00,395.00,34.00,1970.00,16.00,551.00,5668.00,0.00,50.00,-45.73,1.03,0.88,False,6,0,0,750.00,System,0.03,180.00,
1414279505339,1.00,1.00,10.34,868.00,395.00,34.00,1970.00,16.00,551.00,5668.00,0.00,50.00,-46.10,0.95,1.33,False,6,0,0,750.00,System,0.08,180.00,
1414279505514,1.00,2.00,9.17,868.00,395.00,34.00,1970.00,16.00,551.00,5668.00,0.00,50.00,-45.94,0.90,1.99,False,5,0,0,750.00,System,0.06,180.00,
1414279505664,-1.00,1.00,8.17,868.00,395.00,34.00,1970.00,16.00,551.00,5668.00,0.00,50.00,-46.02,0.82,2.76,False,5,0,0,750.00,System,0.05,180.00,
1414279505840,-1.00,0.00,-5.10,868.00,395.00,34.00,1970.00,16.00,551.00,5668.00,0.00,50.00,-46.18,0.83,2.06,False,6,0,0,750.00,System,0.10,180.00,
1414279505987,1.00,0.00,0.76,868.00,395.00,34.00,1970.00,16.00,551.00,5668.00,0.00,50.00,-45.97,0.93,3.27,False,7,0,0,750.00,System,0.12,180.00,
1414279506143,-1.00,-4.00,-12.67,868.00,395.00,34.00,1970.00,16.00,551.00,5668.00,0.00,50.00,-46.27,0.83,0.90,False,6,0,0,750.00,System,0.20,180.00,
1414279506299,-1.00,-2.00,13.44,868.00,395.00,34.00,1970.00,16.00,551.00,5668.00,0.00,50.00,-46.82,0.95,2.11,False,5,0,0,750.00,System,0.08,180.00,
1414279506458,-1.00,-2.00,-11.84,868.00,395.00,34.00,1970.00,16.00,551.00,5668.00,0.00,50.00,-46.63,0.84,2.39,False,5,0,0,750.00,System,0.17,180.00,
1414279506636,-1.00,-4.00,-37.00,868.00,395.00,34.00,1970.00,16.00,551.00,5668.00,0.00,50.00,-46.43,0.95,0.82,False,5,0,0,750.00,System,0.26,180.00,
1414279506785,1.00,-8.00,-49.25,868.00,395.00,34.00,1970.00,16.00,551.00,5668.00,0.00,50.00,-46.70,0.69,-1.07,False,5,0,0,750.00,System,0.31,180.00,
1414279506970,-1.00,-3.00,-18.21,868.00,395.00,34.00,1970.00,16.00,551.00,5668.00,0.00,50.00,-46.40,0.50,0.84,False,6,0,0,750.00,System,0.00,180.00,
1414279507125,-1.00,-4.00,-37.74,868.00,395.00,34.00,1970.00,16.00,551.00,5668.00,0.00,50.00,-45.41,0.40,1.01,False,6,0,0,750.00,System,0.11,180.00,
1414279507303,-1.00,-5.00,-45.90,868.00,395.00,34.00,1970.00,16.00,551.00,5668.00,0.00,50.00,-44.28,0.39,0.61,False,6,0,0,750.00,System,0.12,180.00,
1414279507454,1.00,-6.00,-35.98,868.00,395.00,34.00,1970.00,16.00,551.00,5668.00,0.00,50.00,-43.24,0.41,-0.88,False,6,0,0,750.00,System,0.25,180.00,
1414279507610,-1.00,-8.00,-11.32,868.00,395.00,34.00,1970.00,16.00,551.00,5668.00,0.00,50.00,-41.69,0.19,-2.24,False,5,0,0,750.00,System,0.07,180.00,
1414279507765,1.00,-4.00,4.18,868.00,395.00,34.00,1970.00,16.00,551.00,5668.00,0.00,50.00,-39.99,-0.18,-0.31,False,5,0,0,750.00,System,0.03,180.00,
1414279507922,-1.00,-1.00,-0.29,868.00,395.00,34.00,1970.00,16.00,551.00,5668.00,0.00,50.00,-38.12,-0.22,1.44,False,5,0,0,750.00,System,0.03,180.00,
1414279508075,-1.00,-5.00,-27.36,868.00,395.00,34.00,1970.00,16.00,551.00,5668.00,0.00,50.00,-36.63,-0.21,-0.97,False,6,0,0,750.00,System,0.15,180.00,
1414279508252,-1.00,-6.00,-19.64,868.00,395.00,34.00,1970.00,16.00,551.00,5668.00,0.00,50.00,-36.29,-0.07,-3.50,False,6,0,0,750.00,System,0.16,180.00,
1414279508428,-1.00,0.00,15.60,868.00,395.00,34.00,1970.00,16.00,551.00,5668.00,0.00,50.00,-35.54,-0.30,-1.25,False,5,0,0,750.00,System,0.02,180.00,
1414279508564,1.00,2.00,5.32,868.00,395.00,34.00,1970.00,16.00,551.00,5668.00,0.00,50.00,-36.19,-0.25,-0.56,False,6,0,0,750.00,System,0.00,180.00,
1414279508718,-1.00,1.00,24.47,868.00,395.00,34.00,1970.00,16.00,551.00,5668.00,0.00,50.00,-37.28,-0.38,0.76,False,6,0,0,750.00,System,0.01,180.00,
1414279508872,1.00,1.00,7.39,868.00,395.00,34.00,1970.00,16.00,551.00,5668.00,0.00,50.00,-37.83,-0.11,1.95,False,6,0,0,750.00,System,0.04,180.00,
1414279509035,1.00,-1.00,-15.70,868.00,395.00,34.00,1970.00,16.00,551.00,5668.00,0.00,50.00,-38.30,-0.07,1.32,False,5,0,0,750.00,System,0.04,180.00,
1414279509186,1.00,1.00,8.38,868.00,395.00,34.00,1970.00,16.00,551.00,5668.00,0.00,50.00,-38.53,-0.05,1.64,False,6,0,0,750.00,System,0.01,180.00,
1414279509338,-1.00,0.00,-18.84,868.00,395.00,34.00,1970.00,16.00,551.00,5668.00,0.00,50.00,-38.84,0.08,0.58,False,6,0,0,750.00,System,0.09,180.00,
1414279509511,1.00,2.00,4.24,868.00,395.00,34.00,1970.00,16.00,551.00,5668.00,0.00,50.00,-38.91,0.14,1.25,False,5,0,0,750.00,System,0.03,180.00,
1414279509649,-1.00,0.00,2.80,868.00,395.00,34.00,1970.00,16.00,551.00,5668.00,0.00,50.00,-39.10,0.20,1.55,False,7,0,0,750.00,System,0.09,180.00,
1414279509816,-1.00,0.00,-3.18,868.00,395.00,34.00,1970.00,16.00,551.00,5668.00,0.00,50.00,-39.54,0.22,1.50,False,5,0,0,750.00,System,0.08,180.00,
1414279509974,-1.00,0.00,14.06,868.00,395.00,34.00,1970.00,16.00,551.00,5668.00,0.00,50.00,-39.65,0.31,2.23,False,6,0,0,750.00,System,0.05,180.00,
1414279510136,1.00,-1.00,-18.13,868.00,395.00,34.00,1970.00,16.00,551.00,5668.00,0.00,50.00,-39.29,0.30,1.77,False,5,0,0,750.00,System,0.17,180.00,
1414279510292,-1.00,-2.00,-16.79,868.00,395.00,34.00,1970.00,16.00,551.00,5668.00,0.00,50.00,-39.34,0.44,1.32,False,7,0,0,750.00,System,0.14,180.00,
1414279510480,-1.00,-1.00,-8.36,868.00,395.00,34.00,1970.00,16.00,551.00,5668.00,0.00,50.00,-39.92,0.40,0.79,False,5,0,0,750.00,System,0.06,180.00,
1414279510632,-1.00,0.00,-6.13,868.00,395.00,34.00,1970.00,16.00,551.00,5668.00,0.00,50.00,-40.10,0.43,0.37,False,5,0,0,750.00,System,0.04,180.00,
1414279510791,1.00,0.00,-5.65,868.00,395.00,34.00,1970.00,16.00,551.00,5668.00,0.00,50.00,-40.61,0.42,0.22,False,6,0,0,750.00,System,0.00,180.00,
1414279510951,1.00,2.00,6.17,868.00,395.00,34.00,1970.00,16.00,551.00,5668.00,0.00,50.00,-40.59,0.44,1.89,False,5,0,0,750.00,System,0.00,180.00,
1414279511107,1.00,1.00,3.36,868.00,395.00,34.00,1970.00,16.00,551.00,5668.00,0.00,50.00,-40.92,0.35,2.05,False,6,0,0,750.00,System,0.00,180.00,
1414279511267,-1.00,1.00,5.86,868.00,395.00,34.00,1970.00,16.00,551.00,5668.00,0.00,50.00,-41.91,0.40,2.33,False,5,0,0,750.00,System,0.09,180.00,
1414279511434,1.00,0.00,2.19,868.00,395.00,34.00,1970.00,16.00,551.00,5668.00,0.00,50.00,-42.01,0.49,2.29,False,6,0,0,750.00,System,0.14,180.00,
1414279511592,-1.00,0.00,-5.37,868.00,395.00,34.00,1970.00,16.00,551.00,5668.00,0.00,50.00,-41.97,0.53,2.40,False,5,0,0,750.00,System,0.11,180.00,
1414279511742,1.00,-1.00,-16.35,868.00,395.00,34.00,1970.00,16.00,551.00,5668.00,0.00,50.00,-41.41,0.65,2.53,False,6,0,0,750.00,System,0.14,180.00,
1414279511901,-1.00,-2.00,-27.79,868.00,395.00,34.00,1970.00,16.00,551.00,5668.00,0.00,50.00,-41.17,0.65,1.41,False,6,0,0,750.00,System,0.16,180.00,
1414279512061,1.00,-1.00,-7.11,868.00,395.00,34.00,1970.00,16.00,551.00,5668.00,0.00,50.00,-41.63,0.77,1.24,False,6,0,0,750.00,System,0.15,180.00,
1414279512248,-1.00,0.00,1.56,868.00,395.00,34.00,1970.00,16.00,551.00,5668.00,0.00,50.00,-41.96,0.84,2.42,False,5,0,0,750.00,System,0.06,180.00,
1414279512368,-1.00,-4.00,-18.75,868.00,395.00,34.00,1970.00,16.00,551.00,5668.00,0.00,50.00,-42.41,0.79,1.05,False,6,0,0,750.00,System,0.22,180.00,
1414279512521,-1.00,-6.00,-20.21,868.00,395.00,34.00,1970.00,16.00,551.00,5668.00,0.00,50.00,-43.33,1.02,0.61,False,6,0,0,750.00,System,0.28,180.00,
1414279512676,-1.00,-5.00,-33.43,868.00,395.00,34.00,1970.00,16.00,551.00,5668.00,0.00,50.00,-43.84,0.85,-1.01,False,6,0,0,750.00,System,0.13,180.00,
1414279512835,-1.00,-4.00,3.05,868.00,395.00,34.00,1970.00,16.00,551.00,5668.00,0.00,50.00,-44.43,1.04,0.53,False,5,0,0,750.00,System,0.09,180.00,
1414279512986,1.00,-3.00,-34.70,868.00,395.00,34.00,1970.00,16.00,551.00,5668.00,0.00,50.00,-44.13,0.90,-0.01,False,6,0,0,750.00,System,0.09,180.00,
1414279513191,1.00,-2.00,-13.00,868.00,395.00,34.00,1970.00,16.00,551.00,5668.00,0.00,50.00,-43.62,0.97,0.19,False,5,0,0,750.00,System,0.05,180.00,
1414279513300,1.00,-1.00,8.99,868.00,395.00,34.00,1970.00,16.00,551.00,5668.00,0.00,50.00,-43.22,0.89,0.77,False,12,0,0,750.00,System,0.03,180.00,
1414279513472,-1.00,0.00,8.40,868.00,395.00,34.00,1970.00,16.00,551.00,5668.00,0.00,50.00,-43.60,0.86,1.44,False,8,0,0,750.00,System,0.03,180.00,
1414279513618,-1.00,0.00,-18.95,868.00,395.00,34.00,1970.00,16.00,551.00,5668.00,0.00,50.00,-43.79,0.76,0.22,False,5,0,0,750.00,System,0.07,180.00,
1414279513777,1.00,-1.00,-10.31,868.00,395.00,34.00,1970.00,16.00,551.00,5668.00,0.00,50.00,-44.64,0.67,-0.06,False,6,0,0,750.00,System,0.02,180.00,
1414279513936,1.00,6.00,7.98,868.00,395.00,34.00,1970.00,16.00,551.00,5668.00,0.00,50.00,-44.77,0.78,0.72,False,13,0,0,750.00,System,0.01,180.00,
1414279514093,1.00,0.00,10.76,868.00,395.00,34.00,1970.00,16.00,551.00,5668.00,0.00,50.00,-44.99,0.83,1.27,False,5,0,0,750.00,System,0.07,180.00,
1414279514244,1.00,2.00,-0.58,868.00,395.00,34.00,1970.00,16.00,551.00,5668.00,0.00,50.00,-45.77,0.77,1.03,False,7,0,0,750.00,System,0.06,180.00,
1414279514415,1.00,1.00,6.90,868.00,395.00,34.00,1970.00,16.00,551.00,5668.00,0.00,50.00,-46.61,0.63,2.08,False,5,0,0,750.00,System,0.04,180.00,
1414279514575,-1.00,0.00,-12.87,868.00,395.00,34.00,1970.00,16.00,551.00,5668.00,0.00,50.00,-47.02,0.66,0.59,False,5,0,0,750.00,System,0.09,180.00,
1414279514721,-1.00,4.00,15.51,868.00,395.00,34.00,1970.00,16.00,551.00,5668.00,0.00,50.00,-47.32,0.53,1.67,False,5,0,0,750.00,System,0.01,180.00,
1414279514886,-1.00,2.00,23.60,868.00,395.00,34.00,1970.00,16.00,551.00,5668.00,0.00,50.00,-48.42,0.58,2.50,False,6,0,0,750.00,System,0.03,180.00,
1414279515031,1.00,1.00,16.49,868.00,395.00,34.00,1970.00,16.00,551.00,5668.00,0.00,50.00,-49.76,0.74,2.99,False,6,0,0,750.00,System,0.08,180.00,
1414279515195,1.00,0.00,-5.47,868.00,395.00,34.00,1970.00,16.00,551.00,5668.00,0.00,50.00,-50.06,0.80,2.30,False,7,0,0,750.00,System,0.15,180.00,
1414279515355,-1.00,1.00,-2.94,868.00,395.00,34.00,1970.00,16.00,551.00,5668.00,0.00,50.00,-50.48,0.91,1.59,False,5,0,0,750.00,System,0.06,180.00,
1414279515511,1.00,0.00,-9.65,868.00,395.00,34.00,1970.00,16.00,551.00,5668.00,0.00,50.00,-51.15,0.84,1.19,False,6,0,0,750.00,System,0.10,180.00,
1414279515666,1.00,2.00,22.85,868.00,395.00,34.00,1970.00,16.00,551.00,5668.00,0.00,50.00,-51.68,0.77,2.87,False,6,0,0,750.00,System,0.03,180.00,
1414279515816,1.00,0.00,2.07,868.00,395.00,34.00,1970.00,16.00,551.00,5668.00,0.00,50.00,-51.68,1.10,3.35,False,5,0,0,750.00,System,0.09,180.00,
1414279515978,-1.00,-1.00,-23.93,868.00,395.00,34.00,1970.00,16.00,551.00,5668.00,0.00,50.00,-51.90,1.07,2.81,False,5,0,0,750.00,System,0.26,180.00,
1414279516133,1.00,-3.00,-20.39,868.00,395.00,34.00,1970.00,16.00,551.00,5668.00,0.00,50.00,-52.00,0.96,1.05,False,6,0,0,750.00,System,0.25,180.00,
1414279516288,1.00,-4.00,-16.62,868.00,395.00,34.00,1970.00,16.00,551.00,5668.00,0.00,50.00,-52.62,0.88,0.49,False,6,0,0,750.00,System,0.32,180.00,
1414279516443,1.00,-4.00,-25.40,868.00,395.00,34.00,1970.00,16.00,551.00,5668.00,0.00,50.00,-52.67,0.91,-0.19,False,5,0,0,750.00,System,0.14,180.00,
1414279516599,1.00,-4.00,-17.72,868.00,395.00,34.00,1970.00,16.00,551.00,5668.00,0.00,50.00,-52.68,0.92,-0.74,False,7,0,0,750.00,System,0.08,180.00,
1414279516762,-1.00,0.00,5.57,868.00,395.00,34.00,1970.00,16.00,551.00,5668.00,0.00,50.00,-52.57,0.95,1.05,False,6,0,0,750.00,System,0.00,180.00,
1414279516940,-1.00,0.00,-0.44,868.00,395.00,34.00,1970.00,16.00,551.00,5668.00,0.00,50.00,-52.33,0.82,1.35,False,5,0,0,750.00,System,0.01,180.00,
1414279517104,-1.00,0.00,-0.82,868.00,395.00,34.00,1970.00,16.00,551.00,5668.00,0.00,50.00,-52.37,0.90,1.13,False,5,0,0,750.00,System,0.06,180.00,
1414279517238,-1.00,0.00,-0.00,868.00,395.00,34.00,1970.00,16.00,551.00,5668.00,0.00,50.00,-52.03,0.95,2.59,False,7,0,0,750.00,System,0.04,180.00,
1414279517390,1.00,-1.00,-64.57,868.00,395.00,34.00,1970.00,16.00,551.00,5668.00,0.00,50.00,-51.80,0.97,1.56,False,5,0,0,750.00,System,0.10,180.00,
1414279517548,-1.00,0.00,-30.66,868.00,395.00,34.00,1970.00,16.00,551.00,5668.00,0.00,50.00,-51.88,1.11,1.29,False,6,0,0,750.00,System,0.08,180.00,
1414279517726,-1.00,-3.00,-23.83,868.00,395.00,34.00,1970.00,16.00,551.00,5668.00,0.00,50.00,-52.29,1.11,0.56,False,5,0,0,750.00,System,0.24,180.00,
1414279517878,-1.00,-4.00,-19.92,868.00,395.00,34.00,1970.00,16.00,551.00,5668.00,0.00,50.00,-52.14,1.33,0.26,False,5,0,0,750.00,System,0.07,180.00,
1414279518049,1.00,-2.00,-23.39,868.00,395.00,34.00,1970.00,16.00,551.00,5668.00,0.00,50.00,-51.96,1.19,0.45,False,6,0,0,750.00,System,0.10,180.00,
1414279518185,-1.00,-2.00,-23.39,868.00,395.00,34.00,1970.00,16.00,551.00,5668.00,0.00,50.00,-51.29,1.00,-0.04,False,5,0,0,750.00,System,0.02,180.00,
1414279518353,1.00,-2.00,-7.98,868.00,395.00,34.00,1970.00,16.00,551.00,5668.00,0.00,50.00,-50.91,0.90,0.10,False,6,0,0,750.00,System,0.02,180.00,
1414279518500,-1.00,-2.00,1.44,868.00,395.00,34.00,1970.00,16.00,551.00,5668.00,0.00,50.00,-50.46,0.76,2.73,False,6,0,0,750.00,System,0.08,180.00,
1414279518683,-1.00,-5.00,-24.16,868.00,395.00,34.00,1970.00,16.00,551.00,5668.00,0.00,50.00,-49.27,0.97,1.04,False,6,0,0,750.00,System,0.25,180.00,
1414279518933,-1.00,-6.00,-31.82,868.00,395.00,34.00,1970.00,16.00,551.00,5668.00,0.00,50.00,-48.89,1.01,-1.25,False,6,0,0,750.00,System,0.54,180.00,
1414279519001,-1.00,-4.00,-10.23,868.00,395.00,34.00,1970.00,16.00,551.00,5668.00,0.00,50.00,-47.99,1.22,-1.12,False,6,0,0,750.00,System,0.04,180.00,
1414279519127,1.00,-3.00,-3.19,868.00,395.00,34.00,1970.00,16.00,551.00,5668.00,0.00,50.00,-46.52,1.19,-0.91,False,6,0,0,750.00,System,0.06,180.00,
1414279519292,1.00,-5.00,-8.31,868.00,395.00,34.00,1970.00,16.00,551.00,5668.00,0.00,50.00,-45.79,1.19,-0.98,False,5,0,0,750.00,System,0.09,180.00,
1414279519445,-1.00,-4.00,-14.02,868.00,395.00,34.00,1970.00,16.00,551.00,5668.00,0.00,50.00,-44.88,0.82,-1.43,False,6,0,0,750.00,System,0.04,180.00,
1414279519593,-1.00,-3.00,-2.17,868.00,395.00,34.00,1970.00,16.00,551.00,5668.00,0.00,50.00,-43.68,0.65,-0.58,False,5,0,0,750.00,System,0.02,180.00,
1414279519769,1.00,-2.00,-14.36,868.00,395.00,34.00,1970.00,16.00,551.00,5668.00,0.00,50.00,-42.41,0.55,0.86,False,6,0,0,750.00,System,0.03,180.00,
1414279519916,1.00,-1.00,-14.25,868.00,395.00,34.00,1970.00,16.00,551.00,5668.00,0.00,50.00,-41.70,0.49,0.63,False,5,0,0,750.00,System,0.02,180.00,
1414279520081,1.00,-3.00,11.38,868.00,395.00,34.00,1970.00,16.00,551.00,5668.00,0.00,50.00,-41.62,0.51,0.66,False,6,0,0,750.00,System,0.16,180.00,
1414279520236,-1.00,-3.00,4.29,868.00,395.00,34.00,1970.00,16.00,551.00,5668.00,0.00,50.00,-42.17,0.53,0.94,False,5,0,0,750.00,System,0.06,180.00,
1414279520392,-1.00,-4.00,-11.85,868.00,395.00,34.00,1970.00,16.00,551.00,5668.00,0.00,50.00,-41.72,0.59,0.50,False,6,0,0,750.00,System,0.23,180.00,
1414279520571,-1.00,-2.00,-15.23,868.00,395.00,34.00,1970.00,16.00,551.00,5668.00,0.00,50.00,-41.56,0.58,0.64,False,5,0,0,750.00,System,0.02,180.00,
1414279520711,1.00,-2.00,-15.87,868.00,395.00,34.00,1970.00,16.00,551.00,5668.00,0.00,50.00,-41.25,0.47,0.50,False,6,0,0,750.00,System,0.05,180.00,
1414279520863,1.00,0.00,-11.44,868.00,395.00,34.00,1970.00,16.00,551.00,5668.00,0.00,50.00,-40.81,0.63,0.40,False,7,0,0,750.00,System,0.07,180.00,
1414279521019,1.00,0.00,18.75,868.00,395.00,34.00,1970.00,16.00,551.00,5668.00,0.00,50.00,-40.82,0.87,0.88,False,5,0,0,750.00,System,0.02,180.00,
1414279521194,1.00,1.00,-5.59,868.00,395.00,34.00,1970.00,16.00,551.00,5668.00,0.00,50.00,-40.10,0.96,0.70,False,6,0,0,750.00,System,0.04,180.00,
1414279521362,-1.00,2.00,6.97,868.00,395.00,34.00,1970.00,16.00,551.00,5668.00,0.00,50.00,-39.61,1.19,1.48,False,5,0,0,750.00,System,0.03,180.00,
1414279521532,1.00,2.00,4.69,868.00,395.00,34.00,1970.00,16.00,551.00,5668.00,0.00,50.00,-39.71,1.09,2.59,False,6,0,0,750.00,System,0.05,180.00,
1414279521682,-1.00,3.00,3.29,868.00,395.00,34.00,1970.00,16.00,551.00,5668.00,0.00,50.00,-39.92,1.42,3.22,False,6,0,0,750.00,System,0.08,180.00,
1414279521841,-1.00,0.00,0.05,868.00,395.00,34.00,1970.00,16.00,551.00,5668.00,0.00,50.00,-41.77,1.27,2.54,False,6,0,0,750.00,System,0.13,180.00,
1414279521993,1.00,1.00,-1.35,868.00,395.00,34.00,1970.00,16.00,551.00,5668.00,0.00,50.00,-41.77,1.13,1.68,False,6,0,0,750.00,System,0.06,180.00,
1414279522153,1.00,2.00,6.00,868.00,395.00,34.00,1970.00,16.00,551.00,5668.00,0.00,50.00,-41.74,1.29,1.88,False,5,0,0,750.00,System,0.02,180.00,
1414279522304,1.00,1.00,0.07,868.00,395.00,34.00,1970.00,16.00,551.00,5668.00,0.00,50.00,-41.62,1.15,2.26,False,5,0,0,750.00,System,0.06,180.00,
1414279522477,1.00,-1.00,-7.45,868.00,395.00,34.00,1970.00,16.00,551.00,5668.00,0.00,50.00,-41.98,1.04,2.05,False,17,0,0,750.00,System,0.24,180.00,
1414279522628,1.00,-2.00,-14.10,868.00,395.00,34.00,1970.00,16.00,551.00,5668.00,0.00,50.00,-42.16,1.03,1.49,False,7,0,0,750.00,System,0.17,180.00,
1414279522805,1.00,-2.00,-4.00,868.00,395.00,34.00,1970.00,16.00,551.00,5668.00,0.00,50.00,-42.14,0.94,1.15,False,7,0,0,750.00,System,0.02,180.00,
1414279522940,-1.00,0.00,5.07,868.00,395.00,34.00,1970.00,16.00,551.00,5668.00,0.00,50.00,-43.02,0.98,1.81,False,5,0,0,750.00,System,0.06,180.00,
1414279523092,1.00,1.00,41.54,868.00,395.00,34.00,1970.00,16.00,551.00,5668.00,0.00,50.00,-43.96,0.90,3.54,False,6,0,0,750.00,System,0.16,180.00,
1414279523250,-1.00,-3.00,-16.47,868.00,395.00,34.00,1970.00,16.00,551.00,5668.00,0.00,50.00,-44.40,0.86,1.72,False,5,0,0,750.00,System,0.19,180.00,
1414279523422,1.00,-3.00,-19.55,868.00,395.00,34.00,1970.00,16.00,551.00,5668.00,0.00,50.00,-44.77,0.80,0.86,False,5,0,0,750.00,System,0.28,180.00,
1414279523570,-1.00,-2.00,-20.20,868.00,395.00,34.00,1970.00,16.00,551.00,5668.00,0.00,50.00,-44.57,0.88,-0.53,False,6,0,0,750.00,System,0.10,180.00,
1414279523734,-1.00,1.00,5.34,868.00,395.00,34.00,1970.00,16.00,551.00,5668.00,0.00,50.00,-45.17,1.24,0.76,False,6,0,0,750.00,System,0.01,180.00,
1414279523886,1.00,-1.00,-2.49,868.00,395.00,34.00,1970.00,16.00,551.00,5668.00,0.00,50.00,-45.55,1.44,1.26,False,5,0,0,750.00,System,0.04,180.00,
1414279524049,1.00,0.00,-8.49,868.00,395.00,34.00,1970.00,16.00,551.00,5668.00,0.00,50.00,-46.20,1.45,1.37,False,6,0,0,750.00,System,0.02,180.00,
1414279524239,1.00,1.00,1.42,868.00,395.00,34.00,1970.00,16.00,551.00,5668.00,0.00,50.00,-46.61,1.36,2.53,False,5,0,0,750.00,System,0.04,180.00,
1414279524361,1.00,-2.00,-17.28,868.00,395.00,34.00,1970.00,16.00,551.00,5668.00,0.00,50.00,-46.62,1.41,1.53,False,7,0,0,750.00,System,0.27,180.00,
1414279524517,1.00,-1.00,-14.33,868.00,395.00,34.00,1970.00,16.00,551.00,5668.00,0.00,50.00,-46.53,1.52,1.68,False,5,0,0,750.00,System,0.05,180.00,
1414279524667,1.00,-4.00,-16.23,868.00,395.00,34.00,1970.00,16.00,551.00,5668.00,0.00,50.00,-46.87,1.57,1.73,False,15,0,0,750.00,System,0.27,180.00,
1414279524852,-1.00,-2.00,-26.34,868.00,395.00,34.00,1970.00,16.00,551.00,5668.00,0.00,50.00,-47.10,1.58,0.90,False,5,0,0,750.00,System,0.09,180.00,
1414279524971,-1.00,-1.00,-12.75,868.00,395.00,34.00,1970.00,16.00,551.00,5668.00,0.00,50.00,-47.78,1.49,1.24,False,5,0,0,750.00,System,0.06,180.00,
1414279525122,1.00,-1.00,1.54,868.00,395.00,34.00,1970.00,16.00,551.00,5668.00,0.00,50.00,-48.17,1.53,1.18,False,5,0,0,750.00,System,0.05,180.00,
1414279525336,-1.00,-2.00,51.46,868.00,395.00,34.00,1970.00,16.00,551.00,5668.00,0.00,50.00,-48.01,1.43,2.92,False,6,0,0,750.00,System,0.22,180.00,
1414279525474,1.00,-3.00,-23.64,868.00,395.00,34.00,1970.00,16.00,551.00,5668.00,0.00,50.00,-47.95,1.52,1.63,False,5,0,0,750.00,System,0.19,180.00,
1414279525643,1.00,-2.00,-31.08,868.00,395.00,34.00,1970.00,16.00,551.00,5668.00,0.00,50.00,-47.28,1.46,1.07,False,6,0,0,750.00,System,0.07,180.00,
1414279525778,-1.00,-5.00,-8.91,868.00,395.00,34.00,1970.00,16.00,551.00,5668.00,0.00,50.00,-46.84,1.46,-1.96,False,6,0,0,750.00,System,0.20,180.00,
1414279525933,-1.00,-1.00,5.38,868.00,395.00,34.00,1970.00,16.00,551.00,5668.00,0.00,50.00,-46.02,1.30,-0.27,False,5,0,0,750.00,System,0.00,180.00,
1414279526081,-1.00,-1.00,15.49,868.00,395.00,34.00,1970.00,16.00,551.00,5668.00,0.00,50.00,-46.02,1.23,0.55,False,5,0,0,750.00,System,0.01,180.00,
1414279526245,-1.00,0.00,-4.56,868.00,395.00,34.00,1970.00,16.00,551.00,5668.00,0.00,50.00,-45.72,1.27,0.38,False,6,0,0,750.00,System,0.13,180.00,
1414279526401,-1.00,-1.00,3.49,868.00,395.00,34.00,1970.00,16.00,551.00,5668.00,0.00,50.00,-45.53,1.36,1.50,False,5,0,0,750.00,System,0.07,180.00,
1414279526565,-1.00,-2.00,-6.85,868.00,395.00,34.00,1970.00,16.00,551.00,5668.00,0.00,50.00,-45.09,1.39,0.85,False,5,0,0,750.00,System,0.10,180.00,
1414279526733,1.00,-1.00,-15.21,868.00,395.00,34.00,1970.00,16.00,551.00,5668.00,0.00,50.00,-44.25,1.25,0.49,False,6,0,0,750.00,System,0.10,180.00,
1414279526879,-1.00,0.00,-11.00,868.00,395.00,34.00,1970.00,16.00,551.00,5668.00,0.00,50.00,-43.99,1.39,-0.36,False,6,0,0,750.00,System,0.09,180.00,
1414279527056,1.00,2.00,12.79,868.00,395.00,34.00,1970.00,16.00,551.00,5668.00,0.00,50.00,-43.78,1.44,1.13,False,5,0,0,750.00,System,0.00,180.00,
1414279527207,-1.00,2.00,-0.48,868.00,395.00,34.00,1970.00,16.00,551.00,5668.00,0.00,50.00,-43.79,1.36,1.49,False,6,0,0,750.00,System,0.02,180.00,
1414279527381,-1.00,1.00,-4.60,868.00,395.00,34.00,1970.00,16.00,551.00,5668.00,0.00,50.00,-43.57,1.29,1.15,False,6,0,0,750.00,System,0.01,180.00,
1414279527527,1.00,2.00,2.88,868.00,395.00,34.00,1970.00,16.00,551.00,5668.00,0.00,50.00,-43.58,1.34,3.22,False,5,0,0,750.00,System,0.01,180.00,
1414279527702,-1.00,0.00,-9.30,868.00,395.00,34.00,1970.00,16.00,551.00,5668.00,0.00,50.00,-44.06,0.90,2.17,False,5,0,0,750.00,System,0.12,180.00,
1414279527842,1.00,0.00,-7.05,868.00,395.00,34.00,1970.00,16.00,551.00,5668.00,0.00,50.00,-44.42,1.01,2.07,False,5,0,0,750.00,System,0.15,180.00,
1414279528000,1.00,-2.00,-7.32,868.00,395.00,34.00,1970.00,16.00,551.00,5668.00,0.00,50.00,-44.29,1.14,1.44,False,6,0,0,750.00,System,0.06,180.00,
1414279528157,-1.00,0.00,-10.53,868.00,395.00,34.00,1970.00,16.00,551.00,5668.00,0.00,50.00,-44.70,1.13,1.49,False,6,0,0,750.00,System,0.08,180.00,
1414279528326,-1.00,-2.00,-18.65,868.00,395.00,34.00,1970.00,16.00,551.00,5668.00,0.00,50.00,-44.79,1.17,0.87,False,5,0,0,750.00,System,0.04,180.00,
1414279528472,-1.00,-1.00,-2.74,868.00,395.00,34.00,1970.00,16.00,551.00,5668.00,0.00,50.00,-44.92,1.43,0.42,False,6,0,0,750.00,System,0.03,180.00,
1414279528633,-1.00,2.00,0.45,868.00,395.00,34.00,1970.00,16.00,551.00,5668.00,0.00,50.00,-44.51,1.30,1.58,False,5,0,0,750.00,System,0.00,180.00,
1414279528785,-1.00,0.00,-1.14,868.00,395.00,34.00,1970.00,16.00,551.00,5668.00,0.00,50.00,-43.88,1.42,1.25,False,5,0,0,750.00,System,0.02,180.00,
1414279528941,1.00,1.00,-1.51,868.00,395.00,34.00,1970.00,16.00,551.00,5668.00,0.00,50.00,-44.17,1.16,0.85,False,5,0,0,750.00,System,0.06,180.00,
1414279529096,-1.00,3.00,3.33,868.00,395.00,34.00,1970.00,16.00,551.00,5668.00,0.00,50.00,-44.45,1.35,1.16,False,6,0,0,750.00,System,0.01,180.00,
1414279529248,-1.00,3.00,20.61,868.00,395.00,34.00,1970.00,16.00,551.00,5668.00,0.00,50.00,-44.66,1.34,2.46,False,6,0,0,750.00,System,0.03,180.00,
1414279529415,-1.00,1.00,-11.72,868.00,395.00,34.00,1970.00,16.00,551.00,5668.00,0.00,50.00,-44.89,1.24,1.31,False,7,0,0,750.00,System,0.09,180.00,
1414279529567,1.00,2.00,23.81,868.00,395.00,34.00,1970.00,16.00,551.00,5668.00,0.00,50.00,-45.26,1.56,2.36,False,6,0,0,750.00,System,0.05,180.00,
1414279529727,1.00,0.00,11.63,868.00,395.00,34.00,1970.00,16.00,551.00,5668.00,0.00,50.00,-45.81,1.47,2.51,False,5,0,0,750.00,System,0.09,180.00,
1414279529882,-1.00,1.00,7.88,868.00,395.00,34.00,1970.00,16.00,551.00,5668.00,0.00,50.00,-45.91,1.54,2.65,False,5,0,0,750.00,System,0.12,180.00,
1414279530038,1.00,-1.00,-14.98,868.00,395.00,34.00,1970.00,16.00,551.00,5668.00,0.00,50.00,-46.13,1.37,2.01,False,6,0,0,750.00,System,0.27,180.00,
1414279530213,-1.00,-1.00,-7.77,868.00,395.00,34.00,1970.00,16.00,551.00,5668.00,0.00,50.00,-46.13,1.39,1.08,False,6,0,0,750.00,System,0.13,180.00,
1414279530365,-1.00,0.00,6.87,868.00,395.00,34.00,1970.00,16.00,551.00,5668.00,0.00,50.00,-45.63,1.25,2.23,False,6,0,0,750.00,System,0.07,180.00,
1414279530544,1.00,-1.00,-18.52,868.00,395.00,34.00,1970.00,16.00,551.00,5668.00,0.00,50.00,-46.07,1.49,1.37,False,6,0,0,750.00,System,0.21,180.00,
1414279530687,1.00,-1.00,6.40,868.00,395.00,34.00,1970.00,16.00,551.00,5668.00,0.00,50.00,-46.22,1.31,1.62,False,5,0,0,750.00,System,0.08,180.00,
1414279530833,1.00,0.00,1.21,868.00,395.00,34.00,1970.00,16.00,551.00,5668.00,0.00,50.00,-46.45,1.13,1.55,False,5,0,0,750.00,System,0.06,180.00,
1414279530987,1.00,0.00,7.39,868.00,395.00,34.00,1970.00,16.00,551.00,5668.00,0.00,50.00,-46.32,1.15,1.82,False,5,0,0,750.00,System,0.05,180.00,
1414279531154,1.00,2.00,5.93,868.00,395.00,34.00,1970.00,16.00,551.00,5668.00,0.00,50.00,-45.57,1.14,2.37,False,6,0,0,750.00,System,0.04,180.00,
1414279531306,-1.00,2.00,9.82,868.00,395.00,34.00,1970.00,16.00,551.00,5668.00,0.00,50.00,-45.54,1.10,1.41,False,6,0,0,750.00,System,0.02,180.00,
1414279531456,1.00,2.00,29.78,868.00,395.00,34.00,1970.00,16.00,551.00,5668.00,0.00,50.00,-45.67,1.33,2.12,False,5,0,0,750.00,System,0.03,180.00,
1414279531632,1.00,4.00,11.24,868.00,395.00,34.00,1970.00,16.00,551.00,5668.00,0.00,50.00,-45.81,1.41,2.30,False,6,0,0,750.00,System,0.01,180.00,
1414279531789,-1.00,3.00,15.48,868.00,395.00,34.00,1970.00,16.00,551.00,5668.00,0.00,50.00,-46.31,1.52,2.91,False,6,0,0,750.00,System,0.03,180.00,
1414279531946,-1.00,5.00,5.54,868.00,395.00,34.00,1970.00,16.00,551.00,5668.00,0.00,50.00,-47.93,1.37,4.11,False,6,0,0,750.00,System,0.01,180.00,
1414279532094,-1.00,5.00,9.75,868.00,395.00,34.00,1970.00,16.00,551.00,5668.00,0.00,50.00,-49.97,1.26,4.87,False,5,0,0,750.00,System,0.05,180.00,
1414279532259,1.00,0.00,-8.68,868.00,395.00,34.00,1970.00,16.00,551.00,5668.00,0.00,50.00,-52.08,1.12,2.60,False,7,0,0,750.00,System,0.37,180.00,
1414279532427,-1.00,2.00,15.99,868.00,395.00,34.00,1970.00,16.00,551.00,5668.00,0.00,50.00,-52.21,1.28,2.82,False,6,0,0,750.00,System,0.05,180.00,
1414279532589,1.00,1.00,25.04,868.00,395.00,34.00,1970.00,16.00,551.00,5668.00,0.00,50.00,-52.44,1.27,3.42,False,5,0,0,750.00,System,0.08,180.00,
1414279532738,-1.00,0.00,6.60,868.00,395.00,34.00,1970.00,16.00,551.00,5668.00,0.00,50.00,-52.89,1.21,3.15,False,5,0,0,750.00,System,0.12,180.00,
1414279532897,1.00,1.00,11.84,868.00,395.00,34.00,1970.00,16.00,551.00,5668.00,0.00,50.00,-53.12,1.21,2.17,False,6,0,0,750.00,System,0.19,180.00,
1414279533048,-1.00,1.00,23.46,868.00,395.00,34.00,1970.00,16.00,551.00,5668.00,0.00,50.00,-53.79,1.24,2.25,False,6,0,0,750.00,System,0.06,180.00,
1414279533208,-1.00,3.00,22.39,868.00,395.00,34.00,1970.00,16.00,551.00,5668.00,0.00,50.00,-54.63,1.22,2.24,False,5,0,0,750.00,System,0.00,180.00,
1414279533367,1.00,2.00,16.55,868.00,395.00,34.00,1970.00,16.00,551.00,5668.00,0.00,50.00,-56.51,1.15,2.86,False,5,0,0,750.00,System,0.04,180.00,
1414279533526,1.00,4.00,11.87,868.00,395.00,34.00,1970.00,16.00,551.00,5668.00,0.00,50.00,-58.47,1.33,3.48,False,5,0,0,750.00,System,0.01,180.00,
1414279533680,1.00,4.00,22.96,868.00,395.00,34.00,1970.00,16.00,551.00,5668.00,0.00,50.00,-60.49,1.28,3.94,False,5,0,0,750.00,System,0.08,180.00,
1414279533838,1.00,3.00,11.67,868.00,395.00,34.00,1970.00,16.00,551.00,5668.00,0.00,50.00,-62.71,0.84,3.46,False,6,0,0,750.00,System,0.15,180.00,
1414279534001,-1.00,2.00,16.51,868.00,395.00,34.00,1970.00,16.00,551.00,5668.00,0.00,50.00,-63.69,0.94,3.41,False,5,0,0,750.00,System,0.09,180.00,
1414279534280,-1.00,1.00,7.87,868.00,395.00,34.00,1970.00,16.00,551.00,5668.00,0.00,50.00,-63.57,0.90,3.56,False,5,0,0,750.00,System,0.12,180.00,
1414279534336,-1.00,-2.00,-17.98,868.00,395.00,34.00,1970.00,16.00,551.00,5668.00,0.00,50.00,-63.72,0.85,2.70,False,5,0,0,750.00,System,0.18,180.00,
1414279534482,1.00,-2.00,1.65,868.00,395.00,34.00,1970.00,16.00,551.00,5668.00,0.00,50.00,-63.13,0.74,2.59,False,7,0,0,750.00,System,0.20,180.00,
1414279534637,1.00,-1.00,4.83,868.00,395.00,34.00,1970.00,16.00,551.00,5668.00,0.00,50.00,-62.74,0.66,3.09,False,5,0,0,750.00,System,0.11,180.00,
1414279534789,-1.00,-2.00,-2.99,868.00,395.00,34.00,1970.00,16.00,551.00,5668.00,0.00,50.00,-62.39,0.40,1.49,False,5,0,0,750.00,System,0.17,180.00,
1414279534949,1.00,1.00,1.50,868.00,395.00,34.00,1970.00,16.00,551.00,5668.00,0.00,50.00,-62.08,0.32,1.72,False,5,0,0,750.00,System,0.06,180.00,
1414279535129,1.00,-1.00,-1.33,868.00,395.00,34.00,1970.00,16.00,551.00,5668.00,0.00,50.00,-62.22,0.36,1.52,False,5,0,0,750.00,System,0.15,180.00,
1414279535264,1.00,1.00,2.57,868.00,395.00,34.00,1970.00,16.00,551.00,5668.00,0.00,50.00,-62.14,0.45,1.51,False,6,0,0,750.00,System,0.05,180.00,
1414279535416,1.00,1.00,22.18,868.00,395.00,34.00,1970.00,16.00,551.00,5668.00,0.00,50.00,-61.93,0.32,1.57,False,5,0,0,750.00,System,0.06,180.00,
1414279535572,-1.00,1.00,21.41,868.00,395.00,34.00,1970.00,16.00,551.00,5668.00,0.00,50.00,-61.90,0.29,1.37,False,5,0,0,750.00,System,0.04,180.00,
1414279535752,1.00,2.00,18.48,868.00,395.00,34.00,1970.00,16.00,551.00,5668.00,0.00,50.00,-61.69,0.37,1.87,False,6,0,0,750.00,System,0.03,180.00,
1414279535920,1.00,4.00,26.55,868.00,395.00,34.00,1970.00,16.00,551.00,5668.00,0.00,50.00,-61.79,0.45,2.44,False,6,0,0,750.00,System,0.00,180.00,
1414279536075,1.00,2.00,34.67,868.00,395.00,34.00,1970.00,16.00,551.00,5668.00,0.00,50.00,-62.36,1.06,2.61,False,6,0,0,750.00,System,0.07,180.00,
1414279536247,1.00,3.00,38.07,868.00,395.00,34.00,1970.00,16.00,551.00,5668.00,0.00,50.00,-62.41,1.51,4.03,False,5,0,0,750.00,System,0.01,180.00,
1414279536398,1.00,7.00,13.96,868.00,395.00,34.00,1970.00,16.00,551.00,5668.00,0.00,50.00,-62.62,1.43,4.41,False,6,0,0,750.00,System,0.03,180.00,
1414279536557,-1.00,4.00,15.77,868.00,395.00,34.00,1970.00,16.00,551.00,5668.00,0.00,50.00,-63.41,1.76,3.53,False,5,0,0,750.00,System,0.04,180.00,
1414279536712,1.00,6.00,39.93,868.00,395.00,34.00,1970.00,16.00,551.00,5668.00,0.00,50.00,-64.75,1.94,4.50,False,6,0,0,750.00,System,0.02,180.00,
1414279536865,-1.00,6.00,25.71,868.00,395.00,34.00,1970.00,16.00,551.00,5668.00,0.00,50.00,-66.12,1.87,4.63,False,7,0,0,750.00,System,0.05,180.00,
1414279537025,-1.00,3.00,17.54,868.00,395.00,34.00,1970.00,16.00,551.00,5668.00,0.00,50.00,-68.00,2.02,3.26,False,5,0,0,750.00,System,0.12,180.00,
1414279537196,-1.00,2.00,9.80,868.00,395.00,34.00,1970.00,16.00,551.00,5668.00,0.00,50.00,-70.39,1.90,2.60,False,5,0,0,750.00,System,0.20,180.00,
1414279537331,1.00,2.00,20.54,868.00,395.00,34.00,1970.00,16.00,551.00,5668.00,0.00,50.00,-71.68,2.01,1.79,False,5,0,0,750.00,System,0.10,180.00,
1414279537484,-1.00,2.00,81.63,868.00,395.00,34.00,1970.00,16.00,551.00,5668.00,0.00,50.00,-72.55,2.07,3.92,False,6,0,0,750.00,System,0.05,180.00,
1414279537639,-1.00,2.00,11.14,868.00,395.00,34.00,1970.00,16.00,551.00,5668.00,0.00,50.00,-73.65,2.13,3.78,False,6,0,0,750.00,System,0.12,180.00,
1414279537813,-1.00,0.00,3.82,868.00,395.00,34.00,1970.00,16.00,551.00,5668.00,0.00,50.00,-74.56,2.07,2.87,False,6,0,0,750.00,System,0.18,180.00,
1414279537960,1.00,-1.00,10.94,868.00,395.00,34.00,1970.00,16.00,551.00,5668.00,0.00,50.00,-74.73,1.93,2.50,False,6,0,0,750.00,System,0.16,180.00,
1414279538117,1.00,1.00,9.73,868.00,395.00,34.00,1970.00,16.00,551.00,5668.00,0.00,50.00,-74.86,1.90,2.61,False,5,0,0,750.00,System,0.12,180.00,
1414279538266,1.00,0.00,1.02,868.00,395.00,34.00,1970.00,16.00,551.00,5668.00,0.00,50.00,-74.70,1.78,2.24,False,9,0,0,750.00,System,0.14,180.00,
1414279538438,-1.00,2.00,5.05,868.00,395.00,34.00,1970.00,16.00,551.00,5668.00,0.00,50.00,-74.92,1.79,2.51,False,8,0,0,750.00,System,0.17,180.00,
1414279538589,1.00,0.00,-3.37,868.00,395.00,34.00,1970.00,16.00,551.00,5668.00,0.00,50.00,-75.42,1.70,1.40,False,5,0,0,750.00,System,0.12,180.00,
1414279538762,-1.00,2.00,9.76,868.00,395.00,34.00,1970.00,16.00,551.00,5668.00,0.00,50.00,-75.28,1.63,2.72,False,6,0,0,750.00,System,0.04,180.00,
1414279538915,1.00,3.00,-3.99,868.00,395.00,34.00,1970.00,16.00,551.00,5668.00,0.00,50.00,-75.52,1.42,1.99,False,5,0,0,750.00,System,0.07,180.00,
1414279539073,-1.00,4.00,0.07,868.00,395.00,34.00,1970.00,16.00,551.00,5668.00,0.00,50.00,-76.04,1.27,3.54,False,6,0,0,750.00,System,0.00,180.00,
1414279539233,-1.00,2.00,-4.59,868.00,395.00,34.00,1970.00,16.00,551.00,5668.00,0.00,50.00,-77.02,1.24,3.14,False,5,0,0,750.00,System,0.04,180.00,
1414279539388,-1.00,1.00,-9.05,868.00,395.00,34.00,1970.00,16.00,551.00,5668.00,0.00,50.00,-77.09,1.29,3.53,False,6,0,0,750.00,System,0.11,180.00,
1414279539552,-1.00,0.00,-17.95,868.00,395.00,34.00,1970.00,16.00,551.00,5668.00,0.00,50.00,-77.02,1.23,3.71,False,7,0,0,750.00,System,0.12,180.00,
1414279539716,1.00,-2.00,-16.53,868.00,395.00,34.00,1970.00,16.00,551.00,5668.00,0.00,50.00,-76.71,1.15,3.44,False,6,0,0,750.00,System,0.23,180.00,
1414279539872,1.00,-5.00,-30.81,868.00,395.00,34.00,1970.00,16.00,551.00,5668.00,0.00,50.00,-76.50,1.14,1.96,False,6,0,0,750.00,System,0.42,180.00,
1414279540023,1.00,-6.00,-28.93,868.00,395.00,34.00,1970.00,16.00,551.00,5668.00,0.00,50.00,-76.33,1.18,-0.13,False,6,0,0,750.00,System,0.38,180.00,
1414279540228,1.00,-6.00,-30.77,868.00,395.00,34.00,1970.00,16.00,551.00,5668.00,0.00,50.00,-76.62,1.17,0.04,False,5,0,0,750.00,System,0.23,180.00,
1414279540381,1.00,-4.00,-32.18,868.00,395.00,34.00,1970.00,16.00,551.00,5668.00,0.00,50.00,-76.68,1.22,0.49,False,6,0,0,750.00,System,0.18,180.00,
1414279540566,-1.00,-5.00,0.88,868.00,395.00,34.00,1970.00,16.00,551.00,5668.00,0.00,50.00,-76.34,1.10,1.10,False,5,0,0,750.00,System,0.08,180.00,
1414279540642,1.00,-8.00,-17.80,868.00,395.00,34.00,1970.00,16.00,551.00,5668.00,0.00,50.00,-76.56,1.14,-0.03,False,5,0,0,750.00,System,0.27,180.00,
1414279540816,-1.00,-6.00,-7.41,868.00,395.00,34.00,1970.00,16.00,551.00,5668.00,0.00,50.00,-75.89,1.10,-0.96,False,6,0,0,750.00,System,0.15,180.00,
1414279540969,1.00,-4.00,4.76,868.00,395.00,34.00,1970.00,16.00,551.00,5668.00,0.00,50.00,-74.79,1.10,1.84,False,6,0,0,750.00,System,0.04,180.00,
1414279541145,1.00,-5.00,-21.00,868.00,395.00,34.00,1970.00,16.00,551.00,5668.00,0.00,50.00,-73.81,1.23,-0.79,False,6,0,0,750.00,System,0.30,180.00,
1414279541300,-1.00,-2.00,-11.96,868.00,395.00,34.00,1970.00,16.00,551.00,5668.00,0.00,50.00,-73.42,1.36,-2.22,False,6,0,0,750.00,System,0.11,180.00,
1414279541454,1.00,-1.00,15.95,868.00,395.00,34.00,1970.00,16.00,551.00,5668.00,0.00,50.00,-72.01,1.55,-0.73,False,6,0,0,750.00,System,0.00,180.00,
1414279541633,1.00,1.00,7.24,868.00,395.00,34.00,1970.00,16.00,551.00,5668.00,0.00,50.00,-71.32,1.50,0.57,False,5,0,0,750.00,System,0.01,180.00,
1414279541781,-1.00,3.00,3.67,868.00,395.00,34.00,1970.00,16.00,551.00,5668.00,0.00,50.00,-70.93,1.49,3.21,False,5,0,0,750.00,System,0.01,180.00,
1414279541962,1.00,0.00,-2.00,868.00,395.00,34.00,1970.00,16.00,551.00,5668.00,0.00,50.00,-70.45,1.35,2.16,False,6,0,0,750.00,System,0.18,180.00,
1414279542107,-1.00,0.00,-2.04,868.00,395.00,34.00,1970.00,16.00,551.00,5668.00,0.00,50.00,-70.73,1.36,1.57,False,5,0,0,750.00,System,0.12,180.00,
1414279542284,-1.00,0.00,5.99,868.00,395.00,34.00,1970.00,16.00,551.00,5668.00,0.00,50.00,-70.52,1.21,1.76,False,6,0,0,750.00,System,0.09,180.00,
1414279542476,-1.00,0.00,-22.48,868.00,395.00,34.00,1970.00,16.00,551.00,5668.00,0.00,50.00,-70.55,1.13,0.18,False,6,0,0,750.00,System,0.11,180.00,
1414279542583,1.00,2.00,28.87,868.00,395.00,34.00,1970.00,16.00,551.00,5668.00,0.00,50.00,-70.66,1.25,2.07,False,5,0,0,750.00,System,0.00,180.00,
1414279542750,1.00,0.00,-9.99,868.00,395.00,34.00,1970.00,16.00,551.00,5668.00,0.00,50.00,-71.15,1.11,1.67,False,6,0,0,750.00,System,0.05,180.00,
1414279542903,-1.00,1.00,8.03,868.00,395.00,34.00,1970.00,16.00,551.00,5668.00,0.00,50.00,-71.38,1.24,3.12,False,5,0,0,750.00,System,0.02,180.00,
1414279543071,1.00,1.00,-10.90,868.00,395.00,34.00,1970.00,16.00,551.00,5668.00,0.00,50.00,-71.75,1.06,2.90,False,16,0,0,750.00,System,0.47,180.00,
1414279543226,-1.00,-1.00,-12.99,868.00,395.00,34.00,1970.00,16.00,551.00,5668.00,0.00,50.00,-71.74,0.92,2.66,False,6,0,0,750.00,System,0.15,180.00,
1414279543393,1.00,-2.00,-19.09,868.00,395.00,34.00,1970.00,16.00,551.00,5668.00,0.00,50.00,-71.66,0.92,1.42,False,5,0,0,750.00,System,0.18,180.00,
1414279543546,-1.00,-4.00,-3.94,868.00,395.00,34.00,1970.00,16.00,551.00,5668.00,0.00,50.00,-71.63,0.77,0.31,False,5,0,0,750.00,System,0.14,180.00,
1414279543707,-1.00,0.00,0.33,868.00,395.00,34.00,1970.00,16.00,551.00,5668.00,0.00,50.00,-71.15,0.94,1.41,False,6,0,0,750.00,System,0.01,180.00,
1414279543860,1.00,-1.00,-20.67,868.00,395.00,34.00,1970.00,16.00,551.00,5668.00,0.00,50.00,-70.93,0.85,1.71,False,6,0,0,750.00,System,0.07,180.00,
1414279544017,-1.00,-1.00,-3.17,868.00,395.00,34.00,1970.00,16.00,551.00,5668.00,0.00,50.00,-70.65,0.77,1.19,False,6,0,0,750.00,System,0.10,180.00,
1414279544177,1.00,0.00,2.25,868.00,395.00,34.00,1970.00,16.00,551.00,5668.00,0.00,50.00,-69.49,0.73,2.56,False,5,0,0,750.00,System,0.05,180.00,
1414279544328,-1.00,-3.00,-28.39,868.00,395.00,34.00,1970.00,16.00,551.00,5668.00,0.00,50.00,-69.07,0.76,0.89,False,6,0,0,750.00,System,0.33,180.00,
1414279544483,1.00,-4.00,-6.56,868.00,395.00,34.00,1970.00,16.00,551.00,5668.00,0.00,50.00,-69.36,0.81,-0.59,False,5,0,0,750.00,System,0.15,180.00,
1414279544636,1.00,-1.00,1.37,868.00,395.00,34.00,1970.00,16.00,551.00,5668.00,0.00,50.00,-69.05,0.93,1.04,False,5,0,0,750.00,System,0.02,180.00,
1414279544789,-1.00,-3.00,-14.08,868.00,395.00,34.00,1970.00,16.00,551.00,5668.00,0.00,50.00,-68.56,0.81,0.41,False,5,0,0,750.00,System,0.13,180.00,
1414279544947,1.00,-3.00,-11.93,868.00,395.00,34.00,1970.00,16.00,551.00,5668.00,0.00,50.00,-67.99,0.77,-0.37,False,6,0,0,750.00,System,0.06,180.00,
1414279545102,1.00,-1.00,1.67,868.00,395.00,34.00,1970.00,16.00,551.00,5668.00,0.00,50.00,-67.54,0.97,0.34,False,6,0,0,750.00,System,0.00,180.00,
1414279545258,1.00,0.00,18.28,868.00,395.00,34.00,1970.00,16.00,551.00,5668.00,0.00,50.00,-68.17,0.97,1.27,False,6,0,0,750.00,System,0.01,180.00,
1414279545438,1.00,0.00,-6.41,868.00,395.00,34.00,1970.00,16.00,551.00,5668.00,0.00,50.00,-68.24,0.74,1.06,False,6,0,0,750.00,System,0.07,180.00,
1414279545606,-1.00,-1.00,1.38,868.00,395.00,34.00,1970.00,16.00,551.00,5668.00,0.00,50.00,-68.71,0.82,1.34,False,6,0,0,750.00,System,0.05,180.00,
1414279545745,-1.00,1.00,0.04,868.00,395.00,34.00,1970.00,16.00,551.00,5668.00,0.00,50.00,-69.54,0.65,0.83,False,5,0,0,750.00,System,0.04,180.00,
1414279545915,-1.00,3.00,9.91,868.00,395.00,34.00,1970.00,16.00,551.00,5668.00,0.00,50.00,-69.46,0.65,1.55,False,6,0,0,750.00,System,0.01,180.00,
1414279546067,1.00,3.00,28.46,868.00,395.00,34.00,1970.00,16.00,551.00,5668.00,0.00,50.00,-70.06,0.69,2.12,False,6,0,0,750.00,System,0.03,180.00,
1414279546210,1.00,3.00,19.07,868.00,395.00,34.00,1970.00,16.00,551.00,5668.00,0.00,50.00,-70.68,0.33,2.43,False,6,0,0,750.00,System,0.08,180.00,
1414279546380,-1.00,3.00,9.73,868.00,395.00,34.00,1970.00,16.00,551.00,5668.00,0.00,50.00,-70.95,0.29,3.53,False,6,0,0,750.00,System,0.01,180.00,
1414279546552,-1.00,3.00,3.31,868.00,395.00,34.00,1970.00,16.00,551.00,5668.00,0.00,50.00,-71.86,0.20,4.07,False,5,0,0,750.00,System,0.10,180.00,
1414279546720,1.00,2.00,0.52,868.00,395.00,34.00,1970.00,16.00,551.00,5668.00,0.00,50.00,-73.44,0.15,4.27,False,6,0,0,750.00,System,0.18,180.00,
1414279546866,-1.00,0.00,-4.80,868.00,395.00,34.00,1970.00,16.00,551.00,5668.00,0.00,50.00,-74.83,0.37,2.97,False,5,0,0,750.00,System,0.18,180.00,
1414279547027,1.00,2.00,1.39,868.00,395.00,34.00,1970.00,16.00,551.00,5668.00,0.00,50.00,-74.17,0.41,2.89,False,6,0,0,750.00,System,0.06,180.00,
1414279547182,1.00,0.00,-7.42,868.00,395.00,34.00,1970.00,16.00,551.00,5668.00,0.00,50.00,-73.51,0.44,2.72,False,7,0,0,750.00,System,0.19,180.00,
1414279547343,1.00,-1.00,-19.71,868.00,395.00,34.00,1970.00,16.00,551.00,5668.00,0.00,50.00,-73.19,0.46,2.00,False,6,0,0,750.00,System,0.17,180.00,
1414279547505,1.00,1.00,-4.66,868.00,395.00,34.00,1970.00,16.00,551.00,5668.00,0.00,50.00,-72.74,0.46,1.32,False,6,0,0,750.00,System,0.08,180.00,
1414279547681,1.00,2.00,16.05,868.00,395.00,34.00,1970.00,16.00,551.00,5668.00,0.00,50.00,-72.62,0.42,2.02,False,6,0,0,750.00,System,0.07,180.00,
1414279547838,1.00,2.00,13.18,868.00,395.00,34.00,1970.00,16.00,551.00,5668.00,0.00,50.00,-72.26,0.56,3.30,False,5,0,0,750.00,System,0.03,180.00,
1414279547990,-1.00,-1.00,-17.71,868.00,395.00,34.00,1970.00,16.00,551.00,5668.00,0.00,50.00,-71.95,0.60,1.91,False,5,0,0,750.00,System,0.11,180.00,
1414279548158,-1.00,0.00,-15.51,868.00,395.00,34.00,1970.00,16.00,551.00,5668.00,0.00,50.00,-71.06,0.57,1.83,False,6,0,0,750.00,System,0.06,180.00,
1414279548296,1.00,0.00,-12.65,868.00,395.00,34.00,1970.00,16.00,551.00,5668.00,0.00,50.00,-70.46,0.58,2.29,False,5,0,0,750.00,System,0.11,180.00,
1414279548461,1.00,-1.00,-24.74,868.00,395.00,34.00,1970.00,16.00,551.00,5668.00,0.00,50.00,-69.58,0.52,2.16,False,5,0,0,750.00,System,0.12,180.00,
1414279548624,-1.00,-3.00,-23.66,868.00,395.00,34.00,1970.00,16.00,551.00,5668.00,0.00,50.00,-68.88,0.52,0.94,False,5,0,0,750.00,System,0.18,180.00,
1414279548777,-1.00,-4.00,1.38,868.00,395.00,34.00,1970.00,16.00,551.00,5668.00,0.00,50.00,-68.65,0.47,2.00,False,5,0,0,750.00,System,0.09,180.00,
1414279548935,1.00,-4.00,-24.57,868.00,395.00,34.00,1970.00,16.00,551.00,5668.00,0.00,50.00,-67.85,0.49,0.66,False,7,0,0,750.00,System,0.43,180.00,
1414279549096,-1.00,-5.00,-24.71,868.00,395.00,34.00,1970.00,16.00,551.00,5668.00,0.00,50.00,-67.01,0.41,-0.58,False,5,0,0,750.00,System,0.10,180.00,
1414279549251,-1.00,-4.00,-3.10,868.00,395.00,34.00,1970.00,16.00,551.00,5668.00,0.00,50.00,-66.09,0.58,-1.13,False,5,0,0,750.00,System,0.04,180.00,
1414279549398,-1.00,0.00,5.39,868.00,395.00,34.00,1970.00,16.00,551.00,5668.00,0.00,50.00,-65.52,0.66,0.26,False,5,0,0,750.00,System,0.00,180.00,
1414279549555,1.00,0.00,-11.01,868.00,395.00,34.00,1970.00,16.00,551.00,5668.00,0.00,50.00,-66.01,0.72,0.76,False,6,0,0,750.00,System,0.03,180.00,
1414279549706,1.00,1.00,15.54,868.00,395.00,34.00,1970.00,16.00,551.00,5668.00,0.00,50.00,-66.11,0.71,1.51,False,6,0,0,750.00,System,0.04,180.00,
1414279549861,1.00,0.00,1.74,868.00,395.00,34.00,1970.00,16.00,551.00,5668.00,0.00,50.00,-66.49,0.69,2.11,False,5,0,0,750.00,System,0.05,180.00,
1414279550053,1.00,0.00,0.22,868.00,395.00,34.00,1970.00,16.00,551.00,5668.00,0.00,50.00,-66.20,0.68,2.16,False,5,0,0,750.00,System,0.09,180.00,
1414279550169,1.00,-2.00,-8.00,868.00,395.00,34.00,1970.00,16.00,551.00,5668.00,0.00,50.00,-66.26,0.76,1.17,False,5,0,0,750.00,System,0.20,180.00,
1414279550325,-1.00,-3.00,-23.87,868.00,395.00,34.00,1970.00,16.00,551.00,5668.00,0.00,50.00,-66.73,0.85,-0.22,False,7,0,0,750.00,System,0.09,180.00,
1414279550502,-1.00,-1.00,18.45,868.00,395.00,34.00,1970.00,16.00,551.00,5668.00,0.00,50.00,-67.36,0.70,0.74,False,5,0,0,750.00,System,0.01,180.00,
1414279550659,1.00,0.00,-5.73,868.00,395.00,34.00,1970.00,16.00,551.00,5668.00,0.00,50.00,-67.13,0.76,0.43,False,6,0,0,750.00,System,0.10,180.00,
1414279550812,-1.00,1.00,18.67,868.00,395.00,34.00,1970.00,16.00,551.00,5668.00,0.00,50.00,-65.72,0.76,2.26,False,7,0,0,750.00,System,0.02,180.00,
1414279550972,1.00,-2.00,-17.88,868.00,395.00,34.00,1970.00,16.00,551.00,5668.00,0.00,50.00,-65.74,0.56,1.31,False,6,0,0,750.00,System,0.23,180.00,
1414279551129,1.00,-3.00,-36.02,868.00,395.00,34.00,1970.00,16.00,551.00,5668.00,0.00,50.00,-65.67,0.55,0.04,False,6,0,0,750.00,System,0.17,180.00,
1414279551288,-1.00,0.00,-9.02,868.00,395.00,34.00,1970.00,16.00,551.00,5668.00,0.00,50.00,-65.53,0.72,0.66,False,6,0,0,750.00,System,0.02,180.00,
1414279551438,-1.00,-1.00,-4.30,868.00,395.00,34.00,1970.00,16.00,551.00,5668.00,0.00,50.00,-65.49,0.65,0.65,False,5,0,0,750.00,System,0.02,180.00,
1414279551598,-1.00,0.00,1.74,868.00,395.00,34.00,1970.00,16.00,551.00,5668.00,0.00,50.00,-65.76,0.54,1.62,False,5,0,0,750.00,System,0.02,180.00,
1414279551757,-1.00,-3.00,-13.68,868.00,395.00,34.00,1970.00,16.00,551.00,5668.00,0.00,50.00,-65.60,0.52,0.66,False,6,0,0,750.00,System,0.18,180.00,
1414279551918,-1.00,-1.00,-8.60,868.00,395.00,34.00,1970.00,16.00,551.00,5668.00,0.00,50.00,-65.79,0.56,0.19,False,6,0,0,750.00,System,0.03,180.00,
1414279552096,1.00,-2.00,1.24,868.00,395.00,34.00,1970.00,16.00,551.00,5668.00,0.00,50.00,-65.47,0.69,1.79,False,6,0,0,750.00,System,0.06,180.00,
1414279552246,1.00,-2.00,-9.97,868.00,395.00,34.00,1970.00,16.00,551.00,5668.00,0.00,50.00,-65.16,0.89,0.87,False,5,0,0,750.00,System,0.08,180.00,
1414279552389,1.00,-3.00,-15.57,868.00,395.00,34.00,1970.00,16.00,551.00,5668.00,0.00,50.00,-64.99,0.84,-0.48,False,6,0,0,750.00,System,0.15,180.00,
1414279552553,1.00,-3.00,5.99,868.00,395.00,34.00,1970.00,16.00,551.00,5668.00,0.00,50.00,-64.84,0.90,0.13,False,6,0,0,750.00,System,0.07,180.00,
