time,READ Read_LMO,READ Read_RMO,READ Read_anglePIDOutput,READ Read_APIDKp,READ Read_APIDKi,READ Read_APIDKd,READ Read_APIDAggKp,READ Read_APIDAggKi,READ Read_APIDAggKd,READ Read_SPIDKp,READ Read_SPIDKi,READ Read_SPIDKd,READ Read_Yaw,READ Read_Roll,READ Read_Pitch,READ Read_MotorsON,READ Read_LoopT,READ Read_SetsteerGain,READ Read_SetthrottleGain,READ Read_TriggerAngleAggressive,READ Read_Info,READ Read_ISTE,READ Read_BAL,READ FirmwareVersion,READ Read_calibratedZeroAngle,
1414696029500,1.00,0.00,26.92,728.00,260.00,48.00,1970.00,16.00,551.00,5540.00,1330.00,23.00,0.74,1.27,-0.66,False,6,0,0,750.00,System,0.01,0.01,0.5,180.00,
1414696029610,1.00,0.00,26.92,728.00,260.00,48.00,1970.00,16.00,551.00,5540.00,1330.00,23.00,0.74,1.27,-0.63,False,6,0,0,750.00,System,0.01,0.01,0.5,180.00,
1414696029789,1.00,0.00,22.04,728.00,260.00,48.00,1970.00,16.00,551.00,5540.00,1330.00,23.00,0.75,1.27,-0.64,False,1,0,0,750.00,System,0.00,0.00,0.5,180.00,
1414696029916,1.00,0.00,27.16,728.00,260.00,48.00,1970.00,16.00,551.00,5540.00,1330.00,23.00,0.75,1.23,-0.60,False,6,0,0,750.00,System,0.01,0.01,0.5,180.00,
1414696030166,1.00,0.00,22.63,728.00,260.00,48.00,1970.00,16.00,551.00,5540.00,1330.00,23.00,0.77,1.30,-0.57,False,5,0,0,750.00,System,0.01,0.01,0.5,180.00,
1414696030306,1.00,0.00,22.41,728.00,260.00,48.00,1970.00,16.00,551.00,5540.00,1330.00,23.00,0.76,1.27,-0.58,False,6,0,0,750.00,System,0.02,0.01,0.5,180.00,
1414696030562,1.00,0.00,23.17,728.00,260.00,48.00,1970.00,16.00,551.00,5540.00,1330.00,23.00,0.77,1.30,-0.60,False,5,0,0,750.00,System,0.01,0.01,0.5,180.00,
1414696030685,1.00,0.00,23.57,728.00,260.00,48.00,1970.00,16.00,551.00,5540.00,1330.00,23.00,0.78,1.33,-0.61,False,5,0,0,750.00,System,0.01,0.01,0.5,180.00,
1414696030811,1.00,0.00,23.69,728.00,260.00,48.00,1970.00,16.00,551.00,5540.00,1330.00,23.00,0.82,1.30,-0.66,False,5,0,0,750.00,System,0.01,0.01,0.5,180.00,
1414696030945,-1.00,0.00,30.00,728.00,260.00,48.00,1970.00,16.00,551.00,5540.00,1330.00,23.00,0.86,1.28,-0.65,False,6,0,0,750.00,System,0.00,0.00,0.5,180.00,
1414696031199,-1.00,0.00,30.25,728.00,260.00,48.00,1970.00,16.00,551.00,5540.00,1330.00,23.00,0.87,1.26,-0.63,False,5,0,0,750.00,System,0.00,0.00,0.5,180.00,
1414696031330,-1.00,0.00,25.49,728.00,260.00,48.00,1970.00,16.00,551.00,5540.00,1330.00,23.00,0.90,1.25,-0.62,False,5,0,0,750.00,System,0.00,0.00,0.5,180.00,
1414696031593,1.00,0.00,25.03,728.00,260.00,48.00,1970.00,16.00,551.00,5540.00,1330.00,23.00,0.93,1.25,-0.61,False,6,0,0,750.00,System,0.01,0.01,0.5,180.00,
1414696031722,1.00,0.00,25.02,728.00,260.00,48.00,1970.00,16.00,551.00,5540.00,1330.00,23.00,0.94,1.23,-0.60,False,6,0,0,750.00,System,0.01,0.01,0.5,180.00,
1414696031871,1.00,0.00,25.27,728.00,260.00,48.00,1970.00,16.00,551.00,5540.00,1330.00,23.00,0.95,1.23,-0.59,False,5,0,0,750.00,System,0.01,0.01,0.5,180.00,
1414696032017,-1.00,0.00,25.00,728.00,260.00,48.00,1970.00,16.00,551.00,5540.00,1330.00,23.00,0.95,1.24,-0.61,False,5,0,0,750.00,System,0.01,0.01,0.5,180.00,
1414696032163,-1.00,0.00,31.68,728.00,260.00,48.00,1970.00,16.00,551.00,5540.00,1330.00,23.00,0.95,1.23,-0.63,False,25,0,0,750.00,System,0.02,0.01,0.5,180.00,
1414696032315,-1.00,0.00,32.26,728.00,260.00,48.00,1970.00,16.00,551.00,5540.00,1330.00,23.00,0.96,1.23,-0.62,False,23,0,0,750.00,System,0.01,0.01,0.5,180.00,
1414696032472,-1.00,0.00,31.23,728.00,260.00,48.00,1970.00,16.00,551.00,5540.00,1330.00,23.00,0.97,1.24,-0.65,False,23,0,0,750.00,System,0.01,0.01,0.5,180.00,
1414696032624,-1.00,0.00,32.56,728.00,260.00,48.00,1970.00,16.00,551.00,5540.00,1330.00,23.00,0.97,1.22,-0.67,False,24,0,0,750.00,System,0.01,0.01,0.5,180.00,
1414696032937,1.00,0.00,32.32,728.00,260.00,48.00,1970.00,16.00,551.00,5540.00,1330.00,23.00,1.01,1.21,-0.33,False,1,0,0,750.00,System,0.00,0.00,0.5,180.00,
1414696033104,-1.00,0.00,31.40,728.00,260.00,48.00,1970.00,16.00,551.00,5540.00,1330.00,23.00,1.85,1.26,-0.29,False,121,0,0,750.00,System,0.09,0.03,0.5,180.00,
1414696033255,1.00,0.00,15.12,728.00,260.00,48.00,1970.00,16.00,551.00,5540.00,1330.00,23.00,1.92,1.31,-0.35,False,172,0,0,750.00,System,0.59,0.19,0.5,180.00,
1414696033412,-1.00,0.00,30.07,728.00,260.00,48.00,1970.00,16.00,551.00,5540.00,1330.00,23.00,1.90,1.34,-0.38,False,6,0,0,750.00,System,0.01,0.08,0.5,180.00,
1414696033566,1.00,0.00,31.42,728.00,260.00,48.00,1970.00,16.00,551.00,5540.00,1330.00,23.00,1.87,1.25,-0.56,False,6,0,0,750.00,System,0.01,0.03,0.5,180.00,
1414696033715,-1.00,0.00,29.91,728.00,260.00,48.00,1970.00,16.00,551.00,5540.00,1330.00,23.00,1.09,1.25,1.89,False,123,0,0,750.00,System,0.17,0.06,0.5,180.00,
1414696033870,1.00,0.00,-83.28,728.00,260.00,48.00,1970.00,16.00,551.00,5540.00,1330.00,23.00,1.11,1.22,4.09,False,5,0,0,750.00,System,0.09,0.05,0.5,180.00,
1414696034021,1.00,0.00,-50.13,728.00,260.00,48.00,1970.00,16.00,551.00,5540.00,1330.00,23.00,1.55,1.19,4.07,False,5,0,0,750.00,System,0.19,0.08,0.5,180.00,
1414696034183,-1.00,1.00,-8.34,728.00,260.00,48.00,1970.00,16.00,551.00,5540.00,1330.00,23.00,1.50,1.21,2.98,False,121,0,0,750.00,System,3.64,2.31,0.5,180.00,
1414696034326,1.00,0.00,29.46,728.00,260.00,48.00,1970.00,16.00,551.00,5540.00,1330.00,23.00,1.44,1.27,2.41,False,5,0,0,750.00,System,0.13,0.48,0.5,180.00,
1414696034476,1.00,0.00,16.92,728.00,260.00,48.00,1970.00,16.00,551.00,5540.00,1330.00,0.00,1.23,1.33,2.25,False,5,0,0,750.00,System,0.10,0.21,0.5,180.00,
1414696034634,1.00,0.00,11.42,728.00,260.00,48.00,1970.00,16.00,551.00,5540.00,1330.00,0.00,1.33,1.30,2.86,False,6,0,0,750.00,System,0.11,0.12,0.5,180.00,
1414696034796,1.00,0.00,-9.51,728.00,260.00,48.00,1970.00,16.00,551.00,5540.00,1330.00,0.00,1.25,1.25,4.28,False,5,0,0,750.00,System,0.12,0.08,0.5,180.00,
1414696034939,-1.00,0.00,3.52,728.00,260.00,48.00,1970.00,16.00,551.00,5540.00,1330.00,0.00,1.41,1.23,5.70,False,121,0,0,750.00,System,2.35,0.76,0.5,180.00,
1414696035105,1.00,0.00,-95.17,728.00,260.00,48.00,1970.00,16.00,551.00,5540.00,1330.00,0.00,1.38,1.23,5.98,False,5,0,0,750.00,System,0.30,0.38,0.5,180.00,
1414696035256,-1.00,0.00,-18.54,728.00,260.00,48.00,1970.00,16.00,551.00,5540.00,1330.00,0.00,1.36,1.23,5.86,False,5,0,0,750.00,System,0.28,0.23,0.5,180.00,
1414696035410,-1.00,0.00,11.41,0.00,260.00,48.00,1970.00,16.00,551.00,5540.00,1330.00,0.00,1.46,1.21,4.91,False,5,0,0,750.00,System,0.27,0.17,0.5,180.00,
1414696035627,-1.00,0.00,28.58,0.00,260.00,48.00,1970.00,16.00,551.00,5540.00,1330.00,0.00,1.41,1.21,4.34,False,6,0,0,750.00,System,0.25,0.14,0.5,180.00,
1414696036079,-1.00,0.00,21.00,0.00,260.00,48.00,1970.00,16.00,551.00,5540.00,1330.00,0.00,1.52,1.24,4.16,False,5,0,0,750.00,System,0.17,0.11,0.5,180.00,
1414696036322,-1.00,0.00,11.34,0.00,260.00,48.00,1970.00,16.00,551.00,5540.00,1330.00,0.00,1.57,1.27,5.10,False,6,0,0,750.00,System,0.20,0.10,0.5,180.00,
1414696036421,-1.00,0.00,-9.18,0.00,260.00,48.00,1970.00,16.00,551.00,5540.00,1330.00,0.00,1.61,1.28,6.70,False,6,0,0,750.00,System,0.26,0.12,0.5,180.00,
1414696036540,1.00,0.00,-33.77,728.00,260.00,48.00,1970.00,16.00,551.00,5540.00,1330.00,0.00,1.64,1.22,7.91,False,5,0,0,750.00,System,0.38,0.16,0.5,180.00,
1414696036655,-1.00,0.00,-38.08,728.00,260.00,48.00,1970.00,16.00,551.00,5540.00,1330.00,0.00,1.69,1.15,8.79,False,6,0,0,750.00,System,0.53,0.23,0.5,180.00,
1414696036774,1.00,0.00,-47.54,728.00,260.00,48.00,1970.00,16.00,551.00,5540.00,1330.00,0.00,1.78,1.13,8.50,False,5,0,0,750.00,System,0.58,0.27,0.5,180.00,
1414696036891,1.00,0.00,-41.02,728.00,260.00,48.00,1970.00,16.00,551.00,5540.00,1330.00,0.00,1.79,1.12,7.17,False,6,0,0,750.00,System,0.67,0.31,0.5,180.00,
1414696037009,1.00,0.00,-27.65,728.00,260.00,48.00,1970.00,16.00,551.00,5540.00,1330.00,0.00,1.78,1.16,5.40,False,5,0,0,750.00,System,0.43,0.25,0.5,180.00,
1414696037119,1.00,0.00,-8.33,728.00,260.00,48.00,1970.00,16.00,551.00,5540.00,1330.00,0.00,1.71,1.18,4.70,False,5,0,0,750.00,System,0.28,0.18,0.5,180.00,
1414696037242,-1.00,0.00,-11.56,728.00,260.00,48.00,1970.00,16.00,551.00,5540.00,1330.00,0.00,1.26,1.20,5.96,False,5,0,0,750.00,System,0.20,0.13,0.5,180.00,
1414696037352,-1.00,0.00,-31.89,728.00,260.00,48.00,1970.00,16.00,551.00,5540.00,1330.00,0.00,1.31,1.17,7.42,False,5,0,0,750.00,System,0.28,0.14,0.5,180.00,
1414696037565,-1.00,0.00,-43.85,728.00,260.00,48.00,1970.00,16.00,551.00,5540.00,1330.00,23.00,1.32,1.15,8.46,False,5,0,0,750.00,System,0.39,0.17,0.5,180.00,
1414696037872,-1.00,0.00,-45.68,728.00,260.00,48.00,1970.00,16.00,551.00,5540.00,1330.00,23.00,1.33,1.11,9.36,False,5,0,0,750.00,System,0.48,0.21,0.5,180.00,
1414696037986,-1.00,0.00,-100.00,728.00,260.00,48.00,1970.00,16.00,551.00,5540.00,1330.00,23.00,1.33,1.11,9.47,False,6,0,0,750.00,System,0.69,0.30,0.5,180.00,
1414696038103,-1.00,0.00,-100.00,728.00,260.00,48.00,1970.00,16.00,551.00,5540.00,1330.00,23.00,1.37,1.10,7.73,False,6,0,0,750.00,System,0.71,0.33,0.5,180.00,
1414696038221,1.00,0.00,-35.97,728.00,260.00,48.00,1970.00,16.00,551.00,5540.00,1330.00,23.00,1.36,1.13,5.27,False,5,0,0,750.00,System,0.50,0.28,0.5,180.00,
1414696038329,1.00,0.00,-6.43,728.00,260.00,48.00,1970.00,16.00,551.00,5540.00,1330.00,23.00,1.22,1.18,4.11,False,5,0,0,750.00,System,0.28,0.19,0.5,180.00,
1414696038453,1.00,0.00,-7.64,728.00,260.00,48.00,1970.00,16.00,551.00,5540.00,1330.00,23.00,1.17,1.17,3.95,False,5,0,0,750.00,System,0.20,0.14,0.5,180.00,
1414696038564,1.00,0.00,-9.11,728.00,260.00,48.00,1970.00,16.00,551.00,5540.00,1330.00,23.00,1.30,1.17,3.09,False,5,0,0,750.00,System,0.19,0.11,0.5,180.00,
1414696038685,1.00,0.00,-3.03,728.00,260.00,48.00,1970.00,16.00,551.00,5540.00,1330.00,23.00,1.21,1.18,2.56,False,6,0,0,750.00,System,0.17,0.09,0.5,180.00,
1414696038816,1.00,0.00,-1.60,728.00,260.00,48.00,1970.00,16.00,551.00,5540.00,1330.00,23.00,1.05,1.22,3.68,False,6,0,0,750.00,System,0.14,0.08,0.5,180.00,
1414696039099,1.00,0.00,-22.16,728.00,260.00,48.00,1970.00,16.00,551.00,5540.00,1330.00,23.00,1.25,1.20,4.44,False,5,0,0,750.00,System,0.17,0.08,0.5,180.00,
1414696039238,-1.00,0.00,-35.56,728.00,260.00,48.00,1970.00,16.00,551.00,5540.00,1330.00,23.00,1.38,1.20,5.49,False,5,0,0,750.00,System,0.22,0.10,0.5,180.00,
1414696039351,-1.00,0.00,-29.62,728.00,260.00,48.00,1970.00,16.00,551.00,5540.00,1330.00,23.00,1.44,1.16,7.19,False,5,0,0,750.00,System,0.24,0.11,0.5,180.00,
1414696039470,-1.00,0.00,-47.05,728.00,260.00,48.00,1970.00,16.00,551.00,5540.00,1330.00,23.00,1.55,1.13,7.25,False,7,0,0,750.00,System,0.51,0.20,0.5,180.00,
1414696039587,-1.00,0.00,-35.84,728.00,260.00,48.00,1970.00,16.00,551.00,5540.00,1330.00,23.00,1.59,1.11,6.18,False,5,0,0,750.00,System,0.38,0.19,0.5,180.00,
1414696039706,-1.00,0.00,-20.12,728.00,260.00,48.00,1970.00,16.00,551.00,5540.00,1330.00,23.00,1.59,1.13,4.90,False,6,0,0,750.00,System,0.35,0.18,0.5,180.00,
1414696039859,-1.00,0.00,-12.97,728.00,260.00,48.00,1970.00,16.00,551.00,5540.00,1330.00,23.00,1.47,1.17,4.21,False,6,0,0,750.00,System,0.24,0.14,0.5,180.00,
1414696039962,-1.00,0.00,-9.03,728.00,260.00,48.00,1970.00,16.00,551.00,5540.00,1330.00,23.00,1.48,1.16,3.96,False,5,0,0,750.00,System,0.16,0.10,0.5,180.00,
1414696040177,-1.00,0.00,-10.72,728.00,260.00,48.00,1970.00,16.00,551.00,5540.00,1330.00,23.00,1.56,1.15,3.93,False,5,0,0,750.00,System,0.14,0.08,0.5,180.00,
1414696040438,-1.00,0.00,-12.23,728.00,260.00,48.00,1970.00,16.00,551.00,5540.00,1330.00,23.00,1.55,1.11,4.58,False,5,0,0,750.00,System,0.14,0.08,0.5,180.00,
1414696040552,1.00,0.00,-29.41,728.00,260.00,48.00,1970.00,16.00,551.00,5540.00,1330.00,23.00,1.54,1.11,6.38,False,5,0,0,750.00,System,0.18,0.08,0.5,180.00,
1414696040667,-1.00,0.00,-46.22,728.00,260.00,48.00,1970.00,16.00,551.00,5540.00,1330.00,23.00,1.61,1.08,8.59,False,5,0,0,750.00,System,0.31,0.13,0.5,180.00,
1414696040778,-1.00,0.00,-63.77,728.00,260.00,48.00,1970.00,16.00,551.00,5540.00,1330.00,23.00,1.61,1.06,10.16,False,6,0,0,750.00,System,0.59,0.23,0.5,180.00,
1414696040897,-1.00,0.00,-100.00,728.00,260.00,48.00,1970.00,16.00,551.00,5540.00,1330.00,23.00,1.59,1.00,10.78,False,5,0,0,750.00,System,0.66,0.29,0.5,180.00,
1414696041014,-1.00,0.00,-100.00,728.00,260.00,48.00,1970.00,16.00,551.00,5540.00,1330.00,23.00,1.66,0.94,10.31,False,5,0,0,750.00,System,0.74,0.34,0.5,180.00,
1414696041153,-1.00,0.00,-100.00,728.00,260.00,48.00,1970.00,16.00,551.00,5540.00,1330.00,23.00,1.56,0.91,9.06,False,5,0,0,750.00,System,0.69,0.34,0.5,180.00,
1414696041310,-1.00,0.00,-41.87,728.00,260.00,48.00,1970.00,16.00,551.00,5540.00,1330.00,23.00,1.55,0.94,7.56,False,6,0,0,750.00,System,0.66,0.34,0.5,180.00,
1414696041520,1.00,0.00,-52.08,728.00,260.00,48.00,1970.00,16.00,551.00,5540.00,1330.00,23.00,1.54,0.92,4.88,False,120,0,0,750.00,System,15.15,4.81,0.5,180.00,
1414696041887,-1.00,0.00,59.26,728.00,260.00,48.00,1970.00,16.00,551.00,5540.00,1330.00,23.00,1.55,0.98,3.21,False,5,0,0,750.00,System,0.21,1.90,0.5,180.00,
1414696042209,-1.00,0.00,4.26,728.00,260.00,48.00,1970.00,16.00,551.00,5540.00,1330.00,23.00,1.55,0.99,1.93,False,5,0,0,750.00,System,0.11,0.76,0.5,180.00,
1414696042330,-1.00,0.00,23.44,728.00,260.00,48.00,1970.00,16.00,551.00,5540.00,1330.00,23.00,1.32,1.02,0.79,False,5,0,0,750.00,System,0.06,0.31,0.5,180.00,
1414696042441,1.00,0.00,6.73,728.00,260.00,48.00,1970.00,16.00,551.00,5540.00,1330.00,23.00,1.28,1.02,0.31,False,7,0,0,750.00,System,0.06,0.14,0.5,180.00,
1414696042561,-1.00,0.00,13.23,728.00,260.00,48.00,1970.00,16.00,551.00,5540.00,1330.00,23.00,1.14,1.03,1.03,False,5,0,0,750.00,System,0.01,0.06,0.5,180.00,
1414696042670,1.00,0.00,-1.48,728.00,260.00,48.00,1970.00,16.00,551.00,5540.00,1330.00,23.00,1.20,1.02,2.05,False,5,0,0,750.00,System,0.05,0.04,0.5,180.00,
1414696043023,1.00,0.00,-9.34,728.00,260.00,48.00,1970.00,16.00,551.00,5540.00,1330.00,23.00,1.20,0.97,3.26,False,5,0,0,750.00,System,0.09,0.04,0.5,180.00,
1414696043174,1.00,0.00,-24.10,728.00,260.00,48.00,1970.00,16.00,551.00,5540.00,1330.00,23.00,1.33,1.01,2.72,False,5,0,0,750.00,System,0.15,0.06,0.5,180.00,
1414696043288,1.00,0.00,-7.88,728.00,260.00,48.00,1970.00,16.00,551.00,5540.00,1330.00,23.00,1.73,1.03,0.80,False,5,0,0,750.00,System,0.12,0.06,0.5,180.00,
1414696043407,-1.00,0.00,15.46,728.00,260.00,48.00,1970.00,16.00,551.00,5540.00,1330.00,23.00,1.35,1.03,-0.28,False,6,0,0,750.00,System,0.03,0.03,0.5,180.00,
1414696043519,1.00,0.00,13.69,728.00,260.00,48.00,1970.00,16.00,551.00,5540.00,1330.00,23.00,1.28,1.03,0.43,False,5,0,0,750.00,System,0.02,0.02,0.5,180.00,
1414696043637,-1.00,0.00,8.87,728.00,260.00,48.00,1970.00,16.00,551.00,5540.00,1330.00,23.00,1.04,1.02,1.95,False,5,0,0,750.00,System,0.02,0.01,0.5,180.00,
1414696043906,-1.00,0.00,-10.84,728.00,260.00,48.00,1970.00,16.00,551.00,5540.00,1330.00,23.00,1.07,1.01,3.11,False,5,0,0,750.00,System,0.05,0.02,0.5,180.00,
1414696044138,-1.00,0.00,-16.69,728.00,260.00,48.00,1970.00,16.00,551.00,5540.00,1330.00,23.00,1.19,0.99,2.98,False,5,0,0,750.00,System,0.10,0.04,0.5,180.00,
1414696044251,-1.00,0.00,-6.74,728.00,260.00,48.00,1970.00,16.00,551.00,5540.00,1330.00,23.00,1.00,1.00,3.16,False,5,0,0,750.00,System,0.10,0.04,0.5,180.00,
1414696044370,-1.00,0.00,-9.86,728.00,260.00,48.00,1970.00,16.00,551.00,5540.00,1330.00,23.00,0.64,1.03,5.89,False,5,0,0,750.00,System,0.10,0.05,0.5,180.00,
1414696044489,1.00,0.00,-44.23,728.00,260.00,48.00,1970.00,16.00,551.00,5540.00,1330.00,23.00,0.76,0.98,7.66,False,5,0,0,750.00,System,0.32,0.12,0.5,180.00,
1414696044608,1.00,0.00,-60.26,728.00,260.00,48.00,1970.00,16.00,551.00,5540.00,1330.00,23.00,1.73,0.91,6.76,False,5,0,0,750.00,System,0.47,0.19,0.5,180.00,
1414696044719,-1.00,0.00,-32.61,728.00,260.00,48.00,1970.00,16.00,551.00,5540.00,1330.00,23.00,1.64,0.95,4.64,False,5,0,0,750.00,System,0.34,0.18,0.5,180.00,
1414696044836,-1.00,0.00,-11.19,728.00,260.00,48.00,1970.00,16.00,551.00,5540.00,1330.00,23.00,1.53,1.01,2.78,False,5,0,0,750.00,System,0.19,0.12,0.5,180.00,
1414696045043,1.00,0.00,-6.99,728.00,260.00,48.00,1970.00,16.00,551.00,5540.00,1330.00,23.00,1.12,1.02,1.93,False,6,0,0,750.00,System,0.15,0.09,0.5,180.00,
1414696045329,1.00,0.00,2.67,728.00,260.00,48.00,1970.00,16.00,551.00,5540.00,1330.00,23.00,0.91,1.07,1.76,False,5,0,0,750.00,System,0.08,0.06,0.5,180.00,
1414696045443,1.00,0.00,-4.68,728.00,260.00,48.00,1970.00,16.00,551.00,5540.00,1330.00,23.00,0.92,1.09,2.00,False,6,0,0,750.00,System,0.09,0.05,0.5,180.00,
1414696045563,1.00,0.00,-8.95,728.00,260.00,48.00,1970.00,16.00,551.00,5540.00,1330.00,23.00,0.93,1.07,3.18,False,5,0,0,750.00,System,0.09,0.05,0.5,180.00,
1414696045672,1.00,0.00,-37.64,728.00,260.00,48.00,1970.00,16.00,551.00,5540.00,1330.00,23.00,0.91,1.04,4.70,False,6,0,0,750.00,System,0.17,0.07,0.5,180.00,
1414696045792,-1.00,0.00,-27.07,728.00,260.00,48.00,1970.00,16.00,551.00,5540.00,1330.00,23.00,1.08,0.99,5.96,False,5,0,0,750.00,System,0.18,0.08,0.5,180.00,
1414696045903,-1.00,0.00,-40.82,728.00,260.00,48.00,1970.00,16.00,551.00,5540.00,1330.00,23.00,1.36,0.94,6.20,False,5,0,0,750.00,System,0.27,0.12,0.5,180.00,
1414696046029,-1.00,0.00,-40.28,728.00,260.00,48.00,1970.00,16.00,551.00,5540.00,1330.00,23.00,1.42,0.96,5.96,False,6,0,0,750.00,System,0.35,0.15,0.5,180.00,
1414696046399,-1.00,0.00,-30.49,728.00,260.00,48.00,1970.00,16.00,551.00,5540.00,1330.00,23.00,1.39,0.95,5.52,False,5,0,0,750.00,System,0.27,0.14,0.5,180.00,
1414696046761,-1.00,0.00,-25.94,728.00,260.00,48.00,1970.00,16.00,551.00,5540.00,1330.00,23.00,1.42,0.90,4.55,False,5,0,0,750.00,System,0.24,0.13,0.5,180.00,
1414696046883,-1.00,0.00,-19.84,728.00,260.00,48.00,1970.00,16.00,551.00,5540.00,1330.00,23.00,1.41,0.94,3.16,False,5,0,0,750.00,System,0.18,0.10,0.5,180.00,
1414696047018,-1.00,0.00,-2.28,728.00,260.00,48.00,1970.00,16.00,551.00,5540.00,1330.00,23.00,1.44,0.93,0.85,False,5,0,0,750.00,System,0.11,0.07,0.5,180.00,
1414696047150,1.00,0.00,6.43,728.00,260.00,48.00,1970.00,16.00,551.00,5540.00,1330.00,23.00,0.82,1.00,-0.75,False,5,0,0,750.00,System,0.05,0.04,0.5,180.00,
1414696047262,-1.00,0.00,21.47,728.00,260.00,48.00,1970.00,16.00,551.00,5540.00,1330.00,23.00,0.85,1.07,-0.66,False,5,0,0,750.00,System,0.00,0.02,0.5,180.00,
1414696047381,-1.00,0.00,15.54,728.00,260.00,48.00,1970.00,16.00,551.00,5540.00,1330.00,23.00,1.59,0.82,-0.28,False,5,0,0,750.00,System,0.00,0.01,0.5,180.00,
1414696047492,-1.00,0.00,10.23,728.00,260.00,48.00,1970.00,16.00,551.00,5540.00,1330.00,23.00,1.39,0.86,1.36,False,5,0,0,750.00,System,0.01,0.00,0.5,180.00,
1414696047613,-1.00,0.00,-6.65,728.00,260.00,48.00,1970.00,16.00,551.00,5540.00,1330.00,23.00,1.52,0.85,3.91,False,5,0,0,750.00,System,0.04,0.01,0.5,180.00,
1414696047725,-1.00,0.00,-29.37,728.00,260.00,48.00,1970.00,16.00,551.00,5540.00,1330.00,23.00,1.65,0.84,5.63,False,5,0,0,750.00,System,0.14,0.05,0.5,180.00,
1414696047846,-1.00,0.00,-35.75,728.00,260.00,48.00,1970.00,16.00,551.00,5540.00,1330.00,23.00,2.64,0.76,4.49,False,5,0,0,750.00,System,0.23,0.09,0.5,180.00,
1414696047960,-1.00,0.00,-16.49,728.00,260.00,48.00,1970.00,16.00,551.00,5540.00,1330.00,23.00,2.41,0.82,2.73,False,5,0,0,750.00,System,0.18,0.09,0.5,180.00,
1414696048078,1.00,0.00,14.30,728.00,260.00,48.00,1970.00,16.00,551.00,5540.00,1330.00,23.00,1.93,0.91,1.83,False,6,0,0,750.00,System,0.14,0.08,0.5,180.00,
1414696048189,1.00,0.00,-4.72,728.00,260.00,48.00,1970.00,16.00,551.00,5540.00,1330.00,23.00,2.08,0.88,1.45,False,5,0,0,750.00,System,0.08,0.05,0.5,180.00,
1414696048308,1.00,0.00,-4.41,728.00,260.00,48.00,1970.00,16.00,551.00,5540.00,1330.00,23.00,2.08,0.91,1.17,False,5,0,0,750.00,System,0.07,0.04,0.5,180.00,
1414696048425,1.00,0.00,-2.47,728.00,260.00,48.00,1970.00,16.00,551.00,5540.00,1330.00,23.00,2.14,0.97,0.75,False,6,0,0,750.00,System,0.07,0.04,0.5,180.00,
1414696048543,1.00,0.00,1.38,728.00,260.00,48.00,1970.00,16.00,551.00,5540.00,1330.00,23.00,2.16,1.01,0.07,False,5,0,0,750.00,System,0.04,0.03,0.5,180.00,
1414697034137,-1.00,0.00,100.00,938.00,900.00,111.00,1625.00,2550.00,908.00,0.00,111.00,116.00,69.29,1.16,-0.22,False,14,0,0,750.00,System,0.07,0.04,0.5,180.00,
1414697034167,-1.00,0.00,100.00,938.00,900.00,111.00,1625.00,2550.00,908.00,0.00,111.00,116.00,69.29,1.16,-0.25,False,14,0,0,750.00,System,0.07,0.04,0.5,180.00,
1414697034298,0.00,0.00,100.00,938.00,900.00,111.00,1625.00,2550.00,908.00,0.00,111.00,116.00,69.31,1.18,-0.27,False,1,0,0,750.00,System,0.00,0.00,0.5,180.00,
1414697034431,-1.00,0.00,100.00,938.00,900.00,111.00,1625.00,2550.00,908.00,0.00,111.00,116.00,69.33,1.20,-0.25,False,1,0,0,750.00,System,0.00,0.01,0.5,180.00,
1414697034756,-1.00,0.00,100.00,938.00,900.00,111.00,1625.00,2550.00,908.00,0.00,111.00,116.00,69.33,1.16,-0.27,False,5,0,0,750.00,System,0.00,0.00,0.5,180.00,
1414697034903,1.00,0.00,100.00,938.00,900.00,111.00,1625.00,2550.00,908.00,0.00,111.00,116.00,69.33,1.19,-0.25,False,121,0,0,750.00,System,0.60,0.19,0.5,180.00,
1414697035054,1.00,0.00,100.00,938.00,900.00,111.00,1625.00,2550.00,908.00,0.00,111.00,116.00,69.32,1.19,-0.23,False,6,0,0,750.00,System,0.03,0.08,0.5,180.00,
1414697035209,1.00,0.00,100.00,938.00,900.00,111.00,1625.00,2550.00,908.00,0.00,111.00,116.00,69.30,1.17,-0.26,False,4,0,0,750.00,System,0.02,0.04,0.5,180.00,
1414697035357,1.00,0.00,100.00,938.00,900.00,111.00,1625.00,2550.00,908.00,0.00,111.00,116.00,69.32,1.17,-0.28,False,5,0,0,750.00,System,0.02,0.02,0.5,180.00,
1414697035529,-1.00,0.00,100.00,938.00,900.00,111.00,1625.00,2550.00,908.00,0.00,111.00,116.00,69.35,1.16,-0.26,False,5,0,0,750.00,System,0.00,0.01,0.5,180.00,
1414697035685,1.00,0.00,100.00,938.00,900.00,111.00,1625.00,2550.00,908.00,0.00,111.00,116.00,69.37,1.18,-0.27,False,121,0,0,750.00,System,0.59,0.19,0.5,180.00,
1414697035972,-1.00,0.00,100.00,938.00,900.00,111.00,1625.00,2550.00,908.00,0.00,111.00,116.00,69.41,1.19,-0.25,False,14,0,0,750.00,System,0.07,0.06,0.5,180.00,
1414697036124,-1.00,0.00,100.00,938.00,900.00,111.00,1625.00,2550.00,908.00,0.00,111.00,116.00,69.43,1.15,-0.24,False,29,0,0,750.00,System,0.02,0.03,0.5,180.00,
1414697036276,1.00,0.00,100.00,938.00,900.00,111.00,1625.00,2550.00,908.00,0.00,111.00,116.00,69.43,1.15,-0.25,False,1,0,0,750.00,System,0.00,0.01,0.5,180.00,
1414697036430,1.00,0.00,100.00,938.00,900.00,111.00,1625.00,2550.00,908.00,0.00,111.00,116.00,69.46,1.16,-0.27,False,31,0,0,750.00,System,0.15,0.05,0.5,180.00,
1414697036609,-1.00,0.00,100.00,938.00,900.00,111.00,1625.00,2550.00,908.00,0.00,111.00,116.00,69.47,1.16,-0.25,False,5,0,0,750.00,System,0.02,0.03,0.5,180.00,
1414697036772,1.00,0.00,100.00,975.00,900.00,111.00,1625.00,2550.00,908.00,0.00,111.00,116.00,69.50,1.17,-0.27,False,5,0,0,750.00,System,0.01,0.01,0.5,180.00,
1414697037039,-1.00,0.00,100.00,953.00,900.00,111.00,1625.00,2550.00,908.00,0.00,111.00,116.00,69.50,1.16,-0.30,False,6,0,0,750.00,System,0.03,0.01,0.5,180.00,
1414697037189,-1.00,0.00,100.00,832.00,900.00,111.00,1625.00,2550.00,908.00,0.00,111.00,116.00,69.53,1.14,-0.28,False,5,0,0,750.00,System,0.00,0.01,0.5,180.00,
1414697037348,1.00,0.00,99.01,0.00,900.00,111.00,1625.00,2550.00,908.00,0.00,111.00,116.00,69.53,1.13,-0.27,False,6,0,0,750.00,System,0.00,0.00,0.5,180.00,
1414697037492,1.00,0.00,99.46,0.00,900.00,111.00,1625.00,2550.00,908.00,0.00,111.00,116.00,69.55,1.13,-0.26,False,5,0,0,750.00,System,0.01,0.00,0.5,180.00,
1414697037819,-1.00,0.00,100.00,540.00,900.00,111.00,1625.00,2550.00,908.00,0.00,111.00,116.00,69.55,1.10,-0.25,False,6,0,0,750.00,System,0.00,0.00,0.5,180.00,
1414697037962,1.00,0.00,100.00,540.00,900.00,111.00,1625.00,2550.00,908.00,0.00,111.00,116.00,69.55,1.07,-0.28,False,122,0,0,750.00,System,0.60,0.19,0.5,180.00,
1414697038106,1.00,0.00,100.00,540.00,900.00,111.00,1625.00,2550.00,908.00,0.00,111.00,116.00,69.55,1.09,-0.43,False,16,0,0,750.00,System,0.08,0.10,0.5,180.00,
1414697038258,1.00,0.00,100.00,540.00,900.00,111.00,1625.00,2550.00,908.00,0.00,111.00,116.00,69.06,1.26,-0.46,False,5,0,0,750.00,System,0.02,0.04,0.5,180.00,
1414697038408,0.00,0.00,100.00,540.00,900.00,111.00,1625.00,2550.00,908.00,0.00,111.00,116.00,69.21,1.24,-0.42,False,4,0,0,750.00,System,0.02,0.00,0.5,180.00,
1414697038580,-1.00,0.00,100.00,540.00,900.00,111.00,1625.00,2550.00,908.00,0.00,111.00,116.00,69.12,1.23,1.62,False,5,0,0,750.00,System,0.01,0.01,0.5,180.00,
1414697038731,1.00,0.00,100.00,540.00,900.00,111.00,1625.00,2550.00,908.00,0.00,111.00,116.00,68.88,1.24,6.35,False,121,0,0,750.00,System,0.50,0.16,0.5,180.00,
1414697038879,-1.00,0.00,-100.00,540.00,900.00,111.00,1625.00,2550.00,908.00,0.00,111.00,116.00,68.87,1.18,6.69,False,5,0,0,750.00,System,0.38,0.18,0.5,180.00,
1414697039032,-1.00,0.00,52.71,540.00,900.00,111.00,1625.00,2550.00,908.00,0.00,111.00,116.00,69.66,1.15,4.21,False,5,0,0,750.00,System,0.27,0.15,0.5,180.00,
1414697039184,1.00,0.00,100.00,540.00,900.00,111.00,1625.00,2550.00,908.00,0.00,111.00,116.00,68.97,1.20,4.53,False,6,0,0,750.00,System,0.22,0.13,0.5,180.00,
1414697039334,-1.00,0.00,56.41,540.00,900.00,111.00,1625.00,2550.00,908.00,0.00,111.00,116.00,68.06,1.14,8.53,False,6,0,0,750.00,System,0.10,0.08,0.5,180.00,
1414697039518,-1.00,0.00,-100.00,540.00,900.00,111.00,1625.00,2550.00,908.00,0.00,111.00,116.00,68.27,1.11,10.21,False,29,0,0,750.00,System,2.51,0.80,0.5,180.00,
1414697039677,1.00,0.00,-74.77,540.00,900.00,111.00,1625.00,2550.00,908.00,0.00,111.00,116.00,68.86,1.13,7.75,False,5,0,0,750.00,System,0.23,0.38,0.5,180.00,
1414697039809,-1.00,0.00,100.00,548.00,900.00,111.00,1625.00,2550.00,908.00,0.00,111.00,116.00,68.85,1.22,5.32,False,5,0,0,750.00,System,0.42,0.28,0.5,180.00,
1414697039976,1.00,0.00,100.00,548.00,900.00,111.00,1625.00,2550.00,908.00,0.00,111.00,116.00,68.14,1.28,6.25,False,5,0,0,750.00,System,0.21,0.17,0.5,180.00,
1414697040106,-1.00,0.00,24.83,667.00,900.00,111.00,1625.00,2550.00,908.00,0.00,111.00,116.00,67.69,1.30,10.13,False,5,0,0,750.00,System,0.42,0.19,0.5,180.00,
1414697040250,1.00,0.00,-100.00,773.00,900.00,111.00,1625.00,2550.00,908.00,0.00,111.00,116.00,68.00,1.21,11.83,False,5,0,0,750.00,System,0.60,0.26,0.5,180.00,
1414697040399,-1.00,0.00,-100.00,773.00,900.00,111.00,1625.00,2550.00,908.00,0.00,111.00,116.00,68.23,1.16,9.57,False,5,0,0,750.00,System,0.95,0.39,0.5,180.00,
1414697040571,1.00,0.00,100.00,960.00,900.00,111.00,1625.00,2550.00,908.00,0.00,111.00,116.00,68.20,1.18,7.69,False,6,0,0,750.00,System,0.79,0.40,0.5,180.00,
1414697040716,-1.00,0.00,100.00,1140.00,900.00,111.00,1625.00,2550.00,908.00,0.00,111.00,116.00,68.14,1.24,6.98,False,120,0,0,750.00,System,13.68,4.38,0.5,180.00,
1414697040862,1.00,0.00,95.49,1140.00,900.00,111.00,1625.00,2550.00,908.00,0.00,111.00,116.00,67.79,1.29,6.83,False,5,0,0,750.00,System,0.39,1.79,0.5,180.00,
1414697041034,-1.00,0.00,23.87,1140.00,900.00,111.00,1625.00,2550.00,908.00,0.00,111.00,116.00,67.83,1.27,7.08,False,5,0,0,750.00,System,0.37,0.80,0.5,180.00,
1414697041205,1.00,0.00,8.43,1140.00,900.00,111.00,1625.00,2550.00,908.00,0.00,111.00,116.00,67.55,1.24,10.87,False,120,0,0,750.00,System,10.41,3.52,0.5,180.00,
1414697041362,1.00,0.00,-100.00,1140.00,900.00,111.00,1625.00,2550.00,908.00,0.00,111.00,116.00,67.39,1.11,14.04,False,15,0,0,750.00,System,2.56,2.14,0.5,180.00,
1414697041509,1.00,0.00,-100.00,1140.00,900.00,111.00,1625.00,2550.00,908.00,0.00,111.00,116.00,67.68,1.06,13.49,False,27,0,0,750.00,System,6.87,2.94,0.5,180.00,
1414697041635,-1.00,0.00,-100.00,1140.00,1010.00,111.00,1625.00,2550.00,908.00,0.00,111.00,116.00,67.59,1.05,10.58,False,5,0,0,750.00,System,1.25,1.51,0.5,180.00,
1414697041775,-1.00,0.00,100.00,1140.00,1220.00,111.00,1625.00,2550.00,908.00,0.00,111.00,116.00,67.53,1.12,8.80,False,6,0,0,750.00,System,0.84,0.83,0.5,180.00,
1414697041952,1.00,0.00,34.57,1140.00,1480.00,111.00,1625.00,2550.00,908.00,0.00,111.00,116.00,67.55,1.12,8.66,False,5,0,0,750.00,System,0.57,0.49,0.5,180.00,
1414697042104,-1.00,0.00,-8.71,1140.00,1700.00,111.00,1625.00,2550.00,908.00,0.00,111.00,116.00,67.59,1.11,7.76,False,122,0,0,750.00,System,11.96,3.89,0.5,180.00,
1414697042245,1.00,0.00,-32.26,1140.00,1700.00,111.00,1625.00,2550.00,908.00,0.00,111.00,116.00,67.57,1.09,6.77,False,174,0,0,750.00,System,21.59,8.16,0.5,180.00,
1414697042390,-1.00,0.00,42.78,1140.00,1700.00,111.00,1625.00,2550.00,908.00,0.00,111.00,116.00,66.99,1.08,8.54,False,154,0,0,750.00,System,12.09,6.85,0.5,180.00,
1414697042545,-1.00,0.00,-100.00,1140.00,1700.00,111.00,1625.00,2550.00,908.00,0.00,111.00,116.00,67.10,1.02,10.27,False,5,0,0,750.00,System,0.61,2.80,0.5,180.00,
1414697042697,1.00,0.00,-100.00,1140.00,1700.00,111.00,1625.00,2550.00,908.00,0.00,111.00,116.00,67.08,0.97,11.70,False,5,0,0,750.00,System,0.80,1.32,0.5,180.00,
1414697042873,1.00,0.00,-100.00,1140.00,1700.00,111.00,1625.00,2550.00,908.00,0.00,111.00,116.00,67.97,0.92,10.62,False,26,0,0,750.00,System,5.13,2.09,0.5,180.00,
1414697043030,-1.00,1.00,-100.00,1140.00,1700.00,111.00,1625.00,2550.00,908.00,0.00,111.00,116.00,67.89,0.94,8.35,False,127,0,0,750.00,System,20.80,14.45,0.5,180.00,
1414697043201,-1.00,0.00,100.00,1140.00,1700.00,111.00,1625.00,2550.00,908.00,0.00,111.00,116.00,67.89,0.99,6.65,False,17,0,0,750.00,System,1.68,3.28,0.5,180.00,
1414697043360,-1.00,0.00,-28.42,1140.00,1700.00,111.00,1625.00,2550.00,908.00,0.00,111.00,116.00,67.32,1.02,6.63,False,5,0,0,750.00,System,0.26,1.33,0.5,108.00,
1414697043492,-1.00,0.00,-100.00,1140.00,1700.00,111.00,1625.00,2550.00,908.00,0.00,111.00,116.00,67.29,1.01,7.73,False,5,0,0,750.00,System,0.19,0.57,0.5,32.00,
1414697043638,1.00,0.00,-73.72,1140.00,1700.00,111.00,1625.00,2550.00,908.00,0.00,111.00,116.00,67.17,0.97,11.93,False,122,0,0,750.00,System,7.10,2.41,0.5,-40.00,
1414697043782,-1.00,0.00,-100.00,1140.00,1700.00,111.00,1625.00,2550.00,908.00,0.00,111.00,116.00,66.98,0.87,14.17,False,6,0,0,750.00,System,0.58,1.10,0.5,-200.00,
1414697043939,-1.00,0.00,-100.00,1140.00,1700.00,111.00,1625.00,2550.00,908.00,0.00,111.00,116.00,66.96,0.82,12.58,False,5,0,0,750.00,System,0.65,0.62,0.5,-200.00,
1414697044089,1.00,0.00,-100.00,1140.00,1700.00,111.00,1625.00,2550.00,908.00,0.00,111.00,116.00,67.04,0.85,9.80,False,7,0,0,750.00,System,0.71,0.46,0.5,-255.00,
1414697044262,-1.00,0.00,100.00,1140.00,1700.00,111.00,1625.00,2550.00,908.00,0.00,111.00,116.00,67.04,0.94,8.91,False,5,0,0,750.00,System,0.22,0.24,0.5,-255.00,
1414697044404,1.00,0.00,29.34,1140.00,1700.00,111.00,1625.00,2550.00,908.00,0.00,111.00,116.00,67.06,0.92,8.90,False,122,0,0,750.00,System,7.68,2.47,0.5,-255.00,
1414697044552,1.00,0.00,-24.01,1140.00,1700.00,111.00,1625.00,2550.00,908.00,0.00,111.00,116.00,67.15,0.98,8.69,False,16,0,0,750.00,System,0.79,1.19,0.5,-255.00,
1414697044706,-1.00,0.00,-100.00,1140.00,1700.00,111.00,1625.00,2550.00,908.00,0.00,111.00,116.00,67.13,0.96,10.33,False,5,0,0,750.00,System,0.19,0.51,0.5,-255.00,
1414697044882,1.00,0.00,-100.00,1140.00,1700.00,111.00,1625.00,2550.00,908.00,0.00,111.00,116.00,67.18,0.95,12.91,False,6,0,0,750.00,System,0.36,0.31,0.5,-255.00,
1414697045024,-1.00,0.00,-100.00,1140.00,1700.00,111.00,1625.00,2675.00,908.00,0.00,111.00,116.00,67.09,0.90,14.53,False,5,0,0,750.00,System,0.60,0.30,0.5,-255.00,
1414697045174,1.00,0.00,-100.00,1140.00,1700.00,111.00,1625.00,2300.00,908.00,0.00,111.00,116.00,66.97,0.87,14.81,False,5,0,0,750.00,System,0.63,0.31,0.5,-255.00,
1414697045315,-1.00,0.00,-100.00,1140.00,1700.00,111.00,1625.00,1825.00,908.00,0.00,111.00,116.00,67.04,0.87,12.80,False,5,0,0,750.00,System,0.84,0.38,0.5,-255.00,
1414697045463,1.00,0.00,100.00,1140.00,1700.00,111.00,1625.00,1500.00,908.00,0.00,111.00,116.00,67.15,0.90,11.10,False,5,0,0,750.00,System,0.46,0.29,0.5,-255.00,
1414697045616,1.00,0.00,100.00,1140.00,1700.00,111.00,1625.00,1500.00,908.00,0.00,111.00,116.00,67.24,0.90,10.09,False,5,0,0,750.00,System,0.37,0.22,0.5,-255.00,
1414697045769,1.00,0.00,100.00,1140.00,1700.00,111.00,1625.00,1500.00,908.00,0.00,111.00,116.00,67.34,0.91,10.24,False,29,0,0,750.00,System,2.04,0.72,0.5,-255.00,
1414697045925,-1.00,0.00,-100.00,1140.00,1700.00,111.00,1625.00,1500.00,908.00,0.00,111.00,116.00,67.34,0.87,11.98,False,6,0,0,750.00,System,0.42,0.40,0.5,-255.00,
1414697046083,1.00,0.00,-100.00,1140.00,1700.00,111.00,1625.00,1500.00,908.00,0.00,111.00,116.00,67.23,0.86,15.10,False,5,0,0,750.00,System,0.37,0.27,0.5,-255.00,
1414697046251,1.00,0.00,-100.00,1140.00,1700.00,111.00,1625.00,1500.00,908.00,0.00,111.00,116.00,67.40,0.80,17.18,False,6,0,0,750.00,System,0.93,0.39,0.5,-255.00,
1414697046400,-1.00,0.00,-100.00,1140.00,1700.00,111.00,1625.00,1500.00,908.00,0.00,111.00,116.00,67.51,0.72,16.29,False,6,0,0,750.00,System,1.40,0.58,0.5,-255.00,
1414697046548,1.00,0.00,-100.00,1140.00,1700.00,111.00,1625.00,1500.00,743.00,0.00,111.00,116.00,67.42,0.71,13.26,False,122,0,0,750.00,System,26.09,8.28,0.5,-255.00,
1414697046691,-1.00,0.00,100.00,1140.00,1700.00,111.00,1625.00,1500.00,623.00,0.00,111.00,116.00,67.71,0.79,11.18,False,7,0,0,750.00,System,0.81,3.42,0.5,-255.00,
1414697046846,-1.00,0.00,100.00,1140.00,1700.00,111.00,1625.00,1500.00,623.00,0.00,111.00,116.00,67.86,0.83,9.70,False,31,0,0,750.00,System,2.14,1.97,0.5,-255.00,
1414697046993,1.00,0.00,100.00,1140.00,1700.00,111.00,1625.00,1500.00,623.00,0.00,111.00,116.00,67.58,0.84,9.79,False,5,0,0,750.00,System,0.21,0.82,0.5,-255.00,
1414697047145,1.00,0.00,-100.00,1140.00,1700.00,111.00,1625.00,1500.00,623.00,0.00,111.00,116.00,67.60,0.85,10.00,False,5,0,0,750.00,System,0.26,0.39,0.5,-255.00,
1414697047311,1.00,0.00,-100.00,1140.00,1700.00,111.00,1625.00,1500.00,623.00,0.00,111.00,116.00,67.60,0.88,10.45,False,29,0,0,750.00,System,1.90,0.74,0.5,-255.00,
1414697047474,1.00,0.00,-100.00,1140.00,1700.00,111.00,1625.00,1500.00,623.00,0.00,111.00,116.00,67.63,0.90,11.04,False,5,0,0,750.00,System,0.37,0.40,0.5,-255.00,
1414697047626,-1.00,0.00,-100.00,1140.00,1700.00,111.00,1625.00,1500.00,623.00,4420.00,111.00,116.00,67.81,0.89,11.70,False,5,0,0,750.00,System,0.34,0.26,0.5,-255.00,
1414697047760,-1.00,0.00,-100.00,1140.00,1700.00,111.00,1625.00,1500.00,623.00,4500.00,111.00,116.00,67.71,0.86,12.41,False,6,0,0,750.00,System,0.41,0.22,0.5,-255.00,
1414697047907,-1.00,0.00,-100.00,1140.00,1700.00,111.00,1625.00,1500.00,623.00,4720.00,111.00,116.00,68.11,0.87,10.79,False,5,0,0,750.00,System,0.40,0.21,0.5,-255.00,
1414697048059,1.00,0.00,25.82,1140.00,1700.00,111.00,1625.00,1500.00,623.00,5300.00,111.00,116.00,68.08,0.89,10.01,False,5,0,0,750.00,System,0.36,0.19,0.5,-255.00,
1414697048214,1.00,0.00,-100.00,1140.00,1700.00,111.00,1625.00,1500.00,623.00,6320.00,111.00,116.00,68.14,0.90,9.80,False,6,0,0,750.00,System,0.43,0.21,0.5,-255.00,
1414697048365,-1.00,0.00,-100.00,1140.00,1700.00,111.00,1625.00,1500.00,623.00,0.00,111.00,116.00,68.18,0.87,10.38,False,5,0,0,750.00,System,0.31,0.18,0.5,-255.00,
1414697048531,1.00,0.00,-100.00,1140.00,1700.00,111.00,1625.00,1500.00,623.00,0.00,111.00,116.00,68.13,0.87,11.16,False,5,0,0,750.00,System,0.25,0.15,0.5,-255.00,
1414697048682,1.00,0.00,-100.00,1140.00,1700.00,111.00,1625.00,1500.00,623.00,0.00,114.00,116.00,68.45,0.83,11.17,False,6,0,0,750.00,System,0.44,0.19,0.5,-255.00,
1414697048820,1.00,0.00,-100.00,1140.00,1700.00,111.00,1625.00,1500.00,623.00,0.00,125.00,116.00,68.37,0.85,11.00,False,7,0,0,750.00,System,0.61,0.26,0.5,-255.00,
1414697048972,-1.00,0.00,-100.00,1140.00,1700.00,111.00,1625.00,1500.00,623.00,0.00,185.00,116.00,68.46,0.83,10.16,False,5,0,0,750.00,System,0.36,0.21,0.5,-255.00,
1414697049123,1.00,0.00,-100.00,1140.00,1700.00,111.00,1625.00,1500.00,623.00,0.00,284.00,116.00,68.46,0.86,9.79,False,6,0,0,750.00,System,0.35,0.19,0.5,-255.00,
1414697049292,1.00,0.00,-100.00,1140.00,1700.00,111.00,1625.00,1500.00,623.00,0.00,284.00,116.00,68.50,0.84,9.42,False,6,0,0,750.00,System,0.38,0.19,0.5,-255.00,
1414697049448,1.00,0.00,-100.00,1140.00,1700.00,111.00,1625.00,1500.00,623.00,0.00,284.00,116.00,68.57,0.85,8.34,False,5,0,0,750.00,System,0.29,0.16,0.5,-255.00,
1414697049593,-1.00,0.00,-45.28,1140.00,1700.00,111.00,1625.00,1500.00,623.00,0.00,284.00,116.00,68.59,0.87,7.03,False,6,0,0,750.00,System,0.16,0.11,0.5,-255.00,
1414697049743,-1.00,0.00,100.00,1140.00,1700.00,111.00,1625.00,1500.00,623.00,0.00,284.00,116.00,68.45,0.86,5.90,False,29,0,0,750.00,System,0.47,0.19,0.5,-255.00,
1414697049889,-1.00,0.00,100.00,1140.00,1700.00,111.00,1625.00,1500.00,623.00,0.00,284.00,123.00,68.62,0.83,4.81,False,28,0,0,750.00,System,0.22,0.14,0.5,-255.00,
1414697050045,1.00,0.00,66.24,1140.00,1700.00,111.00,1625.00,1500.00,623.00,0.00,284.00,78.00,68.58,0.83,4.00,False,5,0,0,750.00,System,0.03,0.06,0.5,-255.00,
1414697050196,1.00,0.00,-100.00,1140.00,1700.00,111.00,1625.00,1500.00,623.00,0.00,284.00,78.00,68.67,0.89,3.03,False,5,0,0,750.00,System,0.02,0.03,0.5,-255.00,
1414697050347,1.00,0.00,-100.00,1140.00,1700.00,111.00,1625.00,1500.00,623.00,0.00,284.00,78.00,68.75,0.94,1.97,False,5,0,0,750.00,System,0.00,0.01,0.5,-255.00,
1414697050520,-1.00,0.00,-100.00,1140.00,1700.00,111.00,1625.00,1500.00,623.00,0.00,284.00,78.00,68.75,0.97,1.37,False,5,0,0,750.00,System,0.01,0.01,0.5,-255.00,
1414697050667,1.00,0.00,-100.00,1140.00,1700.00,111.00,1625.00,1500.00,623.00,0.00,284.00,78.00,68.91,0.98,0.32,False,122,0,0,750.00,System,0.00,0.00,0.5,-255.00,
1414697050843,1.00,0.00,-82.39,1140.00,1700.00,111.00,1625.00,1500.00,623.00,0.00,284.00,78.00,69.53,0.97,0.28,False,5,0,0,750.00,System,0.02,0.01,0.5,-255.00,
1414697050987,-1.00,0.00,-100.00,1140.00,1700.00,111.00,1625.00,1500.00,623.00,0.00,284.00,78.00,69.79,0.98,0.15,False,122,0,0,750.00,System,0.61,0.19,0.5,-255.00,
1414697096334,1.00,0.00,-100.00,1140.00,1700.00,111.00,1625.00,1500.00,623.00,0.00,284.00,78.00,73.01,1.20,0.02,False,5,0,0,750.00,System,0.02,0.01,0.5,-255.00,
1414697096546,1.00,0.00,-100.00,1140.00,1700.00,111.00,1625.00,1500.00,623.00,0.00,284.00,78.00,73.01,1.20,0.04,False,5,0,0,750.00,System,0.02,0.01,0.5,-255.00,
1414697096701,0.00,0.00,-100.00,1140.00,1700.00,111.00,1625.00,1500.00,623.00,0.00,284.00,78.00,73.02,1.17,0.03,False,4,0,0,750.00,System,0.02,0.00,0.5,-255.00,
1414697096854,1.00,0.00,-100.00,1140.00,1700.00,111.00,1625.00,1500.00,623.00,0.00,284.00,78.00,73.02,1.16,0.02,False,6,0,0,750.00,System,0.05,0.02,0.5,-255.00,
1414697097313,-1.00,0.00,-100.00,1140.00,1700.00,111.00,1625.00,1500.00,623.00,0.00,284.00,78.00,73.06,1.16,-0.00,False,5,0,0,750.00,System,0.02,0.01,0.5,-255.00,
1414697097461,-1.00,0.00,-100.00,1140.00,1700.00,111.00,1625.00,1500.00,623.00,0.00,284.00,78.00,73.08,1.14,0.01,False,5,0,0,750.00,System,0.05,0.02,0.5,-255.00,
1414697097611,-1.00,0.00,-100.00,1140.00,1700.00,111.00,1625.00,1500.00,623.00,0.00,284.00,78.00,73.10,1.11,0.00,False,5,0,0,750.00,System,0.05,0.02,0.5,-255.00,
1414697097784,-1.00,0.00,-100.00,1140.00,1700.00,111.00,1625.00,1500.00,623.00,0.00,284.00,78.00,73.10,1.10,0.01,False,5,0,0,750.00,System,0.02,0.01,0.5,-255.00,
1414697097931,0.00,0.00,-100.00,1140.00,1700.00,111.00,1625.00,1500.00,623.00,0.00,284.00,78.00,73.10,1.07,-0.07,False,122,0,0,750.00,System,0.80,0.00,0.5,-255.00,
1414697098258,1.00,0.00,-100.00,1140.00,1700.00,111.00,1625.00,1500.00,623.00,0.00,284.00,78.00,73.16,1.11,-0.06,False,5,0,0,750.00,System,0.02,0.04,0.5,-255.00,
1414697098404,-1.00,0.00,-100.00,1140.00,1700.00,111.00,1625.00,1500.00,623.00,0.00,284.00,78.00,73.19,1.12,-0.08,False,122,0,0,750.00,System,1.16,0.38,0.5,-255.00,
1414697098554,1.00,0.00,-100.00,1140.00,1700.00,111.00,1625.00,1500.00,623.00,0.00,284.00,78.00,73.20,1.07,-0.10,False,5,0,0,750.00,System,0.05,0.16,0.5,-255.00,
1414697098723,-1.00,0.00,-100.00,1140.00,1700.00,111.00,1625.00,1500.00,623.00,0.00,284.00,78.00,73.21,1.08,-0.09,False,5,0,0,750.00,System,0.02,0.07,0.5,-255.00,
1414697098903,-1.00,0.00,-100.00,1140.00,1700.00,111.00,1625.00,1500.00,623.00,0.00,284.00,78.00,73.23,1.08,-0.10,False,5,0,0,750.00,System,0.05,0.04,0.5,-255.00,
1414697099199,1.00,0.00,-100.00,998.00,1700.00,111.00,1625.00,1500.00,623.00,0.00,284.00,78.00,73.32,1.03,-0.06,False,11,0,0,750.00,System,0.11,0.10,0.5,-255.00,
1414697099466,-1.00,0.00,-100.00,945.00,1700.00,111.00,1625.00,1500.00,623.00,0.00,284.00,78.00,73.35,1.05,-0.03,False,5,0,0,750.00,System,0.05,0.03,0.5,-255.00,
1414697099623,0.00,0.00,-100.00,945.00,1700.00,111.00,1625.00,1500.00,623.00,0.00,284.00,78.00,73.36,1.05,-0.00,False,4,0,0,750.00,System,0.04,0.00,0.5,-255.00,
1414697099775,-1.00,0.00,-100.00,825.00,1700.00,111.00,1625.00,1500.00,623.00,0.00,284.00,78.00,73.39,1.03,0.01,False,6,0,0,750.00,System,0.03,0.02,0.5,-255.00,
1414697099945,0.00,0.00,-100.00,810.00,1700.00,111.00,1625.00,1500.00,623.00,0.00,284.00,78.00,73.41,1.05,-0.01,False,4,0,0,750.00,System,0.03,0.00,0.5,-255.00,
1414697100119,1.00,0.00,-100.00,75.00,1700.00,111.00,1625.00,1500.00,623.00,0.00,284.00,78.00,73.41,1.05,0.00,False,1,0,0,750.00,System,0.01,0.01,0.5,-255.00,
1414697100283,-1.00,0.00,-100.00,75.00,1700.00,111.00,1625.00,1500.00,623.00,0.00,284.00,78.00,73.43,1.02,-0.03,False,1,0,0,750.00,System,0.01,0.01,0.5,-255.00,
1414697100553,1.00,0.00,-100.00,75.00,1700.00,111.00,1625.00,1500.00,623.00,0.00,284.00,78.00,73.46,1.04,-0.06,False,14,0,0,750.00,System,0.13,0.10,0.5,-255.00,
1414697101307,-1.00,0.00,-100.00,75.00,1700.00,111.00,1625.00,1500.00,623.00,0.00,284.00,78.00,73.49,1.09,-0.07,False,26,0,0,750.00,System,0.25,0.16,0.5,-255.00,
1414697101468,-1.00,0.00,-100.00,750.00,1700.00,111.00,1625.00,1500.00,623.00,0.00,284.00,78.00,73.49,1.08,-0.08,False,25,0,0,750.00,System,0.24,0.14,0.5,-255.00,
1414697101656,1.00,0.00,-100.00,585.00,1700.00,111.00,1625.00,1500.00,623.00,0.00,284.00,78.00,73.49,1.08,-0.06,False,1,0,0,750.00,System,0.01,0.05,0.5,-255.00,
1414697101798,-1.00,0.00,-100.00,585.00,1700.00,111.00,1625.00,1500.00,623.00,0.00,284.00,78.00,73.48,1.09,-0.08,False,1,0,0,750.00,System,0.00,0.02,0.5,-255.00,
1414697101934,-1.00,0.00,-100.00,548.00,1700.00,111.00,1625.00,1500.00,623.00,0.00,284.00,78.00,73.50,1.09,-0.06,False,1,0,0,750.00,System,0.01,0.01,0.5,-255.00,
1414697102073,-1.00,0.00,-100.00,540.00,1700.00,111.00,1625.00,1500.00,623.00,0.00,284.00,78.00,73.50,1.08,-0.08,False,6,0,0,750.00,System,0.06,0.02,0.5,-255.00,
1414697102861,-1.00,0.00,-100.00,540.00,1700.00,111.00,1625.00,1500.00,623.00,0.00,284.00,78.00,73.55,1.12,-0.10,False,5,0,0,750.00,System,0.03,0.01,0.5,-255.00,
1414697103131,1.00,0.00,-100.00,540.00,1700.00,111.00,1625.00,1500.00,623.00,0.00,284.00,78.00,73.55,1.14,-0.11,False,0,0,0,750.00,System,0.00,0.01,0.5,-255.00,
1414697103268,-1.00,0.00,-100.00,540.00,1700.00,111.00,1625.00,1500.00,623.00,0.00,284.00,78.00,73.55,1.13,-0.10,False,4,0,0,750.00,System,0.02,0.01,0.5,-255.00,
1414697103397,-1.00,0.00,-100.00,540.00,1700.00,111.00,1625.00,1500.00,623.00,0.00,284.00,78.00,73.56,1.10,-0.08,False,5,0,0,750.00,System,0.05,0.02,0.5,-255.00,
1414697103515,-1.00,0.00,-100.00,540.00,1700.00,111.00,1625.00,1500.00,623.00,0.00,284.00,78.00,73.58,1.08,-0.07,False,1,0,0,750.00,System,0.01,0.01,0.5,-255.00,
1414697103649,-1.00,0.00,-100.00,540.00,1700.00,111.00,1625.00,1500.00,623.00,0.00,284.00,78.00,73.58,1.10,-0.08,False,0,0,0,750.00,System,0.00,0.00,0.5,-255.00,
1414697103762,0.00,0.00,-100.00,540.00,1700.00,111.00,1625.00,1500.00,623.00,0.00,284.00,78.00,73.60,1.11,-0.09,False,1,0,0,750.00,System,0.01,0.00,0.5,-255.00,
1414697103899,1.00,0.00,-100.00,540.00,1700.00,111.00,1625.00,1500.00,623.00,0.00,284.00,78.00,73.60,1.10,-0.07,False,5,0,0,750.00,System,0.03,0.01,0.5,-255.00,
1414697104054,-1.00,0.00,-100.00,540.00,1700.00,111.00,1625.00,1500.00,623.00,0.00,284.00,78.00,73.63,1.11,-0.06,False,5,0,0,750.00,System,0.05,0.02,0.5,-255.00,
1414697104204,1.00,0.00,-100.00,540.00,1700.00,111.00,1625.00,1500.00,623.00,0.00,284.00,78.00,73.64,1.10,-0.10,False,122,0,0,750.00,System,0.57,0.18,0.5,-255.00,
1414697104345,1.00,0.00,-100.00,540.00,1700.00,111.00,1625.00,1500.00,623.00,0.00,284.00,78.00,73.64,1.12,-0.11,False,17,0,0,750.00,System,0.08,0.10,0.5,-255.00,
1414697104501,-1.00,0.00,-100.00,428.00,1700.00,111.00,1625.00,1500.00,623.00,0.00,284.00,78.00,73.66,1.14,-0.12,False,1,0,0,750.00,System,0.01,0.04,0.5,-255.00,
1414697104649,1.00,0.00,-100.00,337.00,1700.00,111.00,1625.00,1500.00,623.00,0.00,284.00,78.00,73.67,1.15,-0.13,False,5,0,0,750.00,System,0.05,0.03,0.5,-255.00,
1414697104968,1.00,0.00,-100.00,337.00,1700.00,111.00,1625.00,1500.00,623.00,0.00,284.00,78.00,73.67,1.16,-0.05,False,121,0,0,750.00,System,0.60,0.19,0.5,-255.00,
1414697105120,-1.00,0.00,-100.00,337.00,1700.00,111.00,1625.00,1500.00,623.00,0.00,284.00,78.00,73.71,1.16,-0.06,False,5,0,0,750.00,System,0.02,0.08,0.5,-255.00,
1414697105296,-1.00,0.00,-100.00,337.00,1700.00,111.00,1625.00,1500.00,623.00,0.00,284.00,78.00,73.73,1.17,-0.05,False,5,0,0,750.00,System,0.02,0.04,0.5,-255.00,
1414697105457,-1.00,0.00,-100.00,330.00,1700.00,111.00,1625.00,1500.00,623.00,0.00,284.00,78.00,73.74,1.17,-0.04,False,6,0,0,750.00,System,0.06,0.03,0.5,-255.00,
1414697105761,-1.00,0.00,-100.00,53.00,1700.00,111.00,1625.00,1500.00,623.00,0.00,284.00,78.00,73.73,1.15,-0.05,False,6,0,0,750.00,System,0.03,0.02,0.5,-255.00,
1414697105936,1.00,0.00,-99.55,38.00,1700.00,111.00,1625.00,1500.00,623.00,0.00,284.00,78.00,73.71,1.16,-0.06,False,5,0,0,750.00,System,0.05,0.02,0.5,-255.00,
1414697106072,1.00,0.00,-99.92,38.00,1700.00,111.00,1625.00,1500.00,623.00,0.00,284.00,78.00,73.73,1.16,-0.07,False,30,0,0,750.00,System,0.14,0.05,0.5,-255.00,
1414697106241,-1.00,0.00,-100.00,38.00,1700.00,111.00,1625.00,1500.00,623.00,0.00,284.00,78.00,73.73,1.14,-0.08,False,0,0,0,750.00,System,0.00,0.02,0.5,-255.00,
1414697106398,-1.00,0.00,-100.00,38.00,1700.00,111.00,1625.00,1500.00,623.00,0.00,284.00,78.00,73.74,1.16,-0.10,False,1,0,0,750.00,System,0.01,0.01,0.5,-255.00,
1414697106682,1.00,0.00,-100.00,8.00,1700.00,111.00,1625.00,1500.00,623.00,0.00,284.00,78.00,73.77,1.16,-0.09,False,5,0,0,750.00,System,0.02,0.01,0.5,-255.00,
1414697106942,-1.00,0.00,-100.00,8.00,1700.00,111.00,1625.00,1500.00,623.00,0.00,284.00,78.00,73.79,1.14,-0.07,False,5,0,0,750.00,System,0.05,0.02,0.5,-255.00,
1414697107097,1.00,0.00,-100.00,8.00,1700.00,111.00,1625.00,1500.00,623.00,0.00,284.00,78.00,73.82,1.14,-0.08,False,5,0,0,750.00,System,0.03,0.02,0.5,-255.00,
1414697107401,0.00,0.00,-99.55,8.00,1700.00,111.00,1625.00,1500.00,623.00,0.00,284.00,78.00,73.83,1.16,-0.10,False,4,0,0,750.00,System,0.02,0.00,0.5,-255.00,
1414697107552,-1.00,0.00,-99.62,8.00,1700.00,111.00,1625.00,1500.00,623.00,0.00,284.00,78.00,73.83,1.16,-0.08,False,0,0,0,750.00,System,0.00,0.01,0.5,-255.00,
1414697107986,1.00,0.00,-100.00,8.00,1700.00,111.00,1625.00,1500.00,623.00,0.00,284.00,78.00,73.84,1.15,-0.07,False,5,0,0,750.00,System,0.03,0.02,0.5,-255.00,
1414697108137,-1.00,0.00,-100.00,8.00,1660.00,111.00,1625.00,1500.00,623.00,0.00,284.00,78.00,73.85,1.15,-0.00,False,121,0,0,750.00,System,0.84,0.27,0.5,-255.00,
1414697108289,1.00,0.00,-100.00,8.00,0.00,111.00,1625.00,1500.00,623.00,0.00,284.00,78.00,73.89,1.20,0.00,False,5,0,0,750.00,System,0.05,0.12,0.5,-255.00,
1414697108470,-1.00,0.00,-100.00,8.00,1350.00,111.00,1625.00,1500.00,623.00,0.00,284.00,78.00,73.92,1.20,0.01,False,5,0,0,750.00,System,0.05,0.06,0.5,-255.00,
1414697108617,1.00,0.00,-100.00,8.00,1170.00,111.00,1625.00,1500.00,623.00,0.00,284.00,78.00,73.92,1.20,0.03,False,122,0,0,750.00,System,0.53,0.19,0.5,-255.00,
1414697108789,1.00,0.00,-100.00,8.00,1050.00,111.00,1625.00,1500.00,623.00,0.00,284.00,78.00,73.88,1.22,0.05,False,21,0,0,750.00,System,0.09,0.10,0.5,-255.00,
1414697109081,1.00,0.00,-100.00,8.00,720.00,111.00,1625.00,1500.00,623.00,0.00,284.00,78.00,73.91,1.16,0.07,False,5,0,0,750.00,System,0.02,0.02,0.5,-255.00,
1414697109232,-1.00,0.00,-100.00,8.00,720.00,111.00,1625.00,1500.00,623.00,0.00,284.00,78.00,73.92,1.16,0.04,False,5,0,0,750.00,System,0.02,0.01,0.5,-255.00,
1414697109366,1.00,0.00,-98.93,8.00,0.00,111.00,1625.00,1500.00,623.00,0.00,284.00,78.00,73.94,1.16,0.03,False,5,0,0,750.00,System,0.04,0.02,0.5,-255.00,
1414697109681,-1.00,0.00,-100.00,8.00,590.00,111.00,1625.00,1500.00,623.00,0.00,284.00,78.00,73.98,1.18,0.02,False,120,0,0,750.00,System,1.07,0.34,0.5,-255.00,
1414697109828,1.00,0.00,-99.25,8.00,370.00,111.00,1625.00,1500.00,623.00,0.00,284.00,78.00,74.01,1.20,0.04,False,5,0,0,750.00,System,0.03,0.14,0.5,-255.00,
1414697109980,-1.00,0.00,-100.00,8.00,370.00,111.00,1625.00,1500.00,623.00,0.00,284.00,78.00,74.02,1.22,0.06,False,1,0,0,750.00,System,0.01,0.06,0.5,-255.00,
1414697110132,1.00,0.00,-100.00,8.00,50.00,111.00,1625.00,1500.00,623.00,0.00,284.00,78.00,74.02,1.23,0.09,False,5,0,0,750.00,System,0.03,0.03,0.5,-255.00,
1414697110284,1.00,0.00,-100.00,8.00,0.00,111.00,1625.00,1500.00,623.00,0.00,284.00,78.00,74.04,1.20,0.08,False,5,0,0,750.00,System,0.02,0.02,0.5,-255.00,
1414697110436,-1.00,0.00,-100.00,8.00,0.00,111.00,1625.00,1500.00,623.00,0.00,284.00,78.00,74.06,1.21,0.11,False,0,0,0,750.00,System,0.00,0.01,0.5,-255.00,
1414697110587,1.00,0.00,-100.00,8.00,0.00,111.00,1625.00,1500.00,623.00,0.00,284.00,78.00,74.08,1.18,0.10,False,5,0,0,750.00,System,0.02,0.01,0.5,-255.00,
1414697110739,-1.00,0.00,-99.96,8.00,0.00,111.00,1625.00,1500.00,623.00,0.00,284.00,78.00,74.10,1.18,0.09,False,4,0,0,750.00,System,0.03,0.01,0.5,-255.00,
1414697110889,-1.00,0.00,-99.90,8.00,0.00,111.00,1625.00,1500.00,623.00,0.00,284.00,78.00,74.12,1.19,0.08,False,5,0,0,750.00,System,0.04,0.02,0.5,-255.00,
1414697111053,-1.00,0.00,-99.59,8.00,0.00,111.00,1625.00,1500.00,623.00,0.00,284.00,78.00,74.15,1.19,0.06,False,5,0,0,750.00,System,0.02,0.01,0.5,-255.00,
1414697111221,-1.00,0.00,-99.49,8.00,0.00,111.00,1625.00,1500.00,623.00,0.00,284.00,78.00,74.17,1.17,0.07,False,5,0,0,750.00,System,0.05,0.02,0.5,-255.00,
1414697111513,1.00,0.00,-100.00,8.00,0.00,111.00,1625.00,1500.00,623.00,0.00,284.00,78.00,74.22,1.20,0.09,False,5,0,0,750.00,System,0.04,0.02,0.5,-255.00,
1414697111652,1.00,0.00,-100.00,8.00,0.00,111.00,1625.00,1500.00,623.00,0.00,284.00,78.00,74.23,1.18,0.08,False,28,0,0,750.00,System,0.11,0.04,0.5,-255.00,
1414697111799,1.00,0.00,-99.69,8.00,0.00,111.00,1625.00,1500.00,623.00,0.00,284.00,78.00,74.22,1.16,0.07,False,5,0,0,750.00,System,0.02,0.02,0.5,-255.00,
1414697111947,1.00,0.00,-99.91,8.00,0.00,111.00,1625.00,1500.00,623.00,0.00,284.00,78.00,74.23,1.15,0.05,False,6,0,0,750.00,System,0.02,0.02,0.5,-255.00,
1414697112097,-1.00,0.00,-99.63,8.00,0.00,91.00,1625.00,1500.00,623.00,0.00,284.00,78.00,74.23,1.16,0.06,False,0,0,0,750.00,System,0.00,0.01,0.5,-255.00,
1414697112255,-1.00,0.00,-100.00,8.00,0.00,49.00,1625.00,1500.00,623.00,0.00,284.00,78.00,74.24,1.16,0.09,False,5,0,0,750.00,System,0.05,0.02,0.5,-255.00,
1414697112402,-1.00,0.00,-100.00,8.00,0.00,49.00,1625.00,1500.00,623.00,0.00,284.00,78.00,74.25,1.17,0.08,False,33,0,0,750.00,System,0.28,0.09,0.5,-255.00,
1414697112557,-1.00,0.00,-100.00,8.00,0.00,49.00,1625.00,1500.00,623.00,0.00,284.00,78.00,74.26,1.17,0.09,False,5,0,0,750.00,System,0.04,0.05,0.5,-255.00,
1414697112731,-1.00,0.00,-100.00,8.00,0.00,49.00,1625.00,1500.00,623.00,0.00,284.00,78.00,74.25,1.16,0.08,False,4,0,0,750.00,System,0.03,0.03,0.5,-255.00,
1414697112898,0.00,0.00,-100.00,8.00,0.00,49.00,1625.00,1500.00,623.00,0.00,284.00,78.00,74.26,1.14,0.07,False,5,0,0,750.00,System,0.03,0.00,0.5,-255.00,
1414697113051,1.00,0.00,-100.00,8.00,0.00,49.00,1625.00,1500.00,623.00,0.00,284.00,78.00,74.27,1.15,0.08,False,119,0,0,750.00,System,0.82,0.26,0.5,-255.00,
1414697113193,1.00,0.00,-100.00,8.00,0.00,49.00,1625.00,1500.00,623.00,0.00,284.00,78.00,74.27,1.12,0.06,False,14,0,0,750.00,System,0.11,0.13,0.5,-255.00,
1414697113324,-1.00,0.00,-99.90,8.00,0.00,49.00,1625.00,1500.00,623.00,0.00,284.00,78.00,74.30,1.12,0.03,False,5,0,0,750.00,System,0.02,0.06,0.5,-255.00,
1414697113479,-1.00,0.00,-100.00,8.00,0.00,49.00,1625.00,1500.00,623.00,0.00,284.00,78.00,74.31,1.12,-0.00,False,5,0,0,750.00,System,0.04,0.04,0.5,-255.00,
1414697113631,1.00,0.00,-99.37,8.00,0.00,49.00,1625.00,1500.00,623.00,0.00,284.00,78.00,74.33,1.10,0.03,False,4,0,0,750.00,System,0.04,0.03,0.5,-255.00,
1414697113781,-1.00,0.00,-100.00,8.00,0.00,49.00,1625.00,1500.00,623.00,0.00,284.00,78.00,74.37,1.10,0.05,False,5,0,0,750.00,System,0.02,0.02,0.5,-255.00,
1414697114117,1.00,0.00,-100.00,8.00,0.00,49.00,300.00,1500.00,623.00,0.00,284.00,78.00,74.42,1.09,0.02,False,121,0,0,750.00,System,0.50,0.16,0.5,-255.00,
1414697114250,-1.00,0.00,-99.45,8.00,0.00,49.00,300.00,1500.00,623.00,0.00,284.00,78.00,74.41,1.12,0.01,False,5,0,0,750.00,System,0.03,0.07,0.5,-255.00,
1414697114553,1.00,0.00,-100.00,8.00,0.00,49.00,300.00,1500.00,623.00,0.00,284.00,78.00,74.40,1.11,0.00,False,120,0,0,750.00,System,0.56,0.19,0.5,-255.00,
1414697114721,-1.00,0.00,-99.85,8.00,0.00,49.00,300.00,1500.00,623.00,0.00,284.00,78.00,74.46,1.14,-0.02,False,5,0,0,750.00,System,0.03,0.08,0.5,-255.00,
1414697115012,1.00,0.00,-99.97,8.00,0.00,49.00,300.00,1500.00,623.00,0.00,284.00,78.00,74.50,1.14,-0.03,False,15,0,0,750.00,System,0.07,0.09,0.5,-255.00,
1414697115171,1.00,0.00,-100.00,8.00,0.00,49.00,300.00,155.00,623.00,0.00,284.00,78.00,74.51,1.14,-0.06,False,4,0,0,750.00,System,0.02,0.04,0.5,-255.00,
1414697115488,-1.00,0.00,-100.00,8.00,0.00,49.00,300.00,675.00,623.00,0.00,284.00,78.00,74.56,1.14,-0.05,False,1,0,0,750.00,System,0.00,0.01,0.5,-255.00,
1414697115625,-1.00,0.00,-100.00,8.00,0.00,49.00,300.00,425.00,623.00,0.00,284.00,78.00,74.60,1.13,-0.04,False,5,0,0,750.00,System,0.05,0.02,0.5,-255.00,
1414697115793,1.00,0.00,-100.00,8.00,0.00,49.00,300.00,175.00,623.00,0.00,284.00,78.00,74.60,1.12,-0.05,False,5,0,0,750.00,System,0.05,0.02,0.5,-255.00,
1414697116084,1.00,0.00,-100.00,8.00,0.00,49.00,300.00,0.00,623.00,0.00,284.00,78.00,74.62,1.09,-0.03,False,19,0,0,750.00,System,0.09,0.13,0.5,-255.00,
1414697116235,-1.00,0.00,-100.00,8.00,0.00,49.00,300.00,0.00,623.00,0.00,284.00,78.00,74.61,1.12,-0.02,False,5,0,0,750.00,System,0.03,0.06,0.5,-255.00,
1414697116390,-1.00,0.00,-100.00,8.00,0.00,49.00,300.00,0.00,623.00,0.00,284.00,78.00,74.63,1.11,-0.03,False,6,0,0,750.00,System,0.06,0.04,0.5,-255.00,
1414697116690,1.00,0.00,-100.00,8.00,0.00,49.00,0.00,0.00,623.00,0.00,284.00,78.00,74.67,1.10,-0.04,False,4,0,0,750.00,System,0.02,0.02,0.5,-255.00,
1414697116871,-1.00,0.00,-100.00,8.00,0.00,49.00,0.00,0.00,623.00,0.00,284.00,78.00,74.67,1.08,-0.02,False,5,0,0,750.00,System,0.05,0.02,0.5,-255.00,
1414697117044,1.00,0.00,-100.00,8.00,0.00,49.00,0.00,0.00,623.00,0.00,284.00,78.00,74.68,1.09,-0.03,False,5,0,0,750.00,System,0.02,0.01,0.5,-255.00,
1414697117451,1.00,0.00,-100.00,8.00,0.00,49.00,0.00,0.00,623.00,0.00,284.00,78.00,74.70,1.07,-0.04,False,5,0,0,750.00,System,0.03,0.01,0.5,-255.00,
1414697117602,-1.00,0.00,-100.00,8.00,0.00,49.00,0.00,0.00,623.00,0.00,284.00,78.00,74.71,1.07,0.01,False,5,0,0,750.00,System,0.05,0.02,0.5,-255.00,
1414697117751,-1.00,0.00,-100.00,8.00,0.00,49.00,0.00,0.00,555.00,0.00,284.00,78.00,74.71,1.07,0.02,False,6,0,0,750.00,System,0.05,0.02,0.5,-255.00,
1414697117924,-1.00,0.00,-100.00,8.00,0.00,49.00,0.00,0.00,195.00,0.00,284.00,78.00,74.74,1.06,0.04,False,5,0,0,750.00,System,0.04,0.02,0.5,-255.00,
1414697118070,1.00,0.00,-100.00,8.00,0.00,49.00,0.00,0.00,0.00,0.00,284.00,78.00,74.77,1.04,0.00,False,119,0,0,750.00,System,0.51,0.17,0.5,-255.00,
1414697118222,1.00,0.00,-99.73,8.00,0.00,49.00,0.00,0.00,0.00,0.00,284.00,78.00,74.76,1.05,0.04,False,5,0,0,750.00,System,0.02,0.07,0.5,-255.00,
1414697118541,-1.00,0.00,-100.00,8.00,0.00,49.00,0.00,0.00,0.00,0.00,284.00,78.00,74.80,1.04,0.02,False,0,0,0,750.00,System,0.00,0.02,0.5,-255.00,
1414697118689,1.00,0.00,-100.00,8.00,0.00,49.00,0.00,0.00,0.00,0.00,284.00,78.00,74.80,1.04,0.04,False,118,0,0,750.00,System,0.54,0.17,0.5,-255.00,
1414697118844,1.00,0.00,-100.00,8.00,0.00,49.00,0.00,0.00,0.00,0.00,284.00,78.00,74.80,1.07,0.03,False,15,0,0,750.00,System,0.06,0.09,0.5,-255.00,
1414697119012,-1.00,0.00,-100.00,8.00,0.00,49.00,0.00,0.00,0.00,3260.00,284.00,78.00,74.80,1.05,0.02,False,4,0,0,750.00,System,0.04,0.04,0.5,-255.00,
1414697119156,1.00,0.00,-100.00,8.00,0.00,49.00,0.00,0.00,0.00,3260.00,284.00,78.00,74.79,1.05,0.09,False,118,0,0,750.00,System,0.43,0.15,0.5,-255.00,
1414697119306,-1.00,0.00,-100.00,8.00,0.00,49.00,0.00,0.00,0.00,3000.00,284.00,78.00,74.80,1.03,0.12,False,6,0,0,750.00,System,0.04,0.07,0.5,-255.00,
1414697119620,-1.00,0.00,-100.00,8.00,0.00,49.00,0.00,0.00,0.00,3000.00,284.00,78.00,74.82,1.00,0.09,False,5,0,0,750.00,System,0.05,0.03,0.5,-255.00,
1414697119754,0.00,0.00,-99.77,8.00,0.00,49.00,0.00,0.00,0.00,3000.00,284.00,78.00,74.83,0.99,0.08,False,5,0,0,750.00,System,0.05,0.00,0.5,-255.00,
1414697120064,1.00,0.00,-100.00,8.00,0.00,49.00,0.00,0.00,0.00,3000.00,284.00,78.00,74.83,1.02,0.09,False,5,0,0,750.00,System,0.02,0.01,0.5,-255.00,
1414697120364,-1.00,0.00,-100.00,8.00,0.00,49.00,0.00,0.00,0.00,3000.00,284.00,78.00,74.86,1.01,0.08,False,5,0,0,750.00,System,0.05,0.15,0.5,-255.00,
1414697120669,1.00,0.00,-100.00,8.00,0.00,49.00,0.00,0.00,0.00,3000.00,284.00,78.00,74.90,1.00,0.09,False,5,0,0,750.00,System,0.05,0.04,0.5,-255.00,
1414697120823,-1.00,0.00,-100.00,8.00,0.00,49.00,0.00,0.00,0.00,3000.00,264.00,78.00,74.92,1.02,0.11,False,5,0,0,750.00,System,0.02,0.02,0.5,-255.00,
1414697120998,1.00,0.00,-100.00,8.00,0.00,49.00,0.00,0.00,0.00,3000.00,198.00,78.00,74.91,1.01,0.13,False,0,0,0,750.00,System,0.00,0.01,0.5,-255.00,
1414697121155,0.00,0.00,-100.00,8.00,0.00,49.00,0.00,0.00,0.00,3000.00,84.00,78.00,74.90,1.00,0.11,False,5,0,0,750.00,System,0.03,0.00,0.5,-255.00,
1414697121292,1.00,0.00,-100.00,8.00,0.00,49.00,0.00,0.00,0.00,3000.00,21.00,78.00,74.90,1.02,0.10,False,4,0,0,750.00,System,0.01,0.01,0.5,-255.00,
1414697121426,1.00,0.00,-100.00,8.00,0.00,49.00,0.00,0.00,0.00,3000.00,6.00,78.00,74.92,0.99,0.09,False,5,0,0,750.00,System,0.02,0.01,0.5,-255.00,
1414697121579,1.00,0.00,-100.00,8.00,0.00,49.00,0.00,0.00,0.00,3000.00,6.00,78.00,74.95,0.99,0.08,False,5,0,0,750.00,System,0.02,0.01,0.5,-255.00,
1414697121748,1.00,0.00,-100.00,8.00,0.00,49.00,0.00,0.00,0.00,3000.00,3.00,78.00,74.99,1.01,0.06,False,6,0,0,750.00,System,0.02,0.01,0.5,-255.00,
1414697121894,-1.00,0.00,-100.00,8.00,0.00,49.00,0.00,0.00,0.00,3000.00,0.00,78.00,75.00,1.03,0.07,False,118,0,0,750.00,System,1.12,0.35,0.5,-255.00,
1414697122202,1.00,0.00,-100.00,8.00,0.00,49.00,0.00,0.00,0.00,3000.00,0.00,78.00,75.01,1.06,0.05,False,1,0,0,750.00,System,0.00,0.06,0.5,-255.00,
1414697122679,1.00,0.00,-100.00,8.00,0.00,49.00,0.00,0.00,0.00,3000.00,0.00,32.00,75.04,1.07,0.03,False,5,0,0,750.00,System,0.03,0.02,0.5,-255.00,
1414697122831,1.00,0.00,-100.00,8.00,0.00,49.00,0.00,0.00,0.00,3000.00,0.00,32.00,75.02,1.06,0.02,False,5,0,0,750.00,System,0.02,0.01,0.5,-255.00,
1414697122981,-1.00,0.00,-99.92,8.00,0.00,49.00,0.00,0.00,0.00,3000.00,0.00,32.00,75.03,1.11,-0.02,False,5,0,0,750.00,System,0.02,0.01,0.5,-255.00,
1414697123134,1.00,0.00,-99.89,8.00,0.00,49.00,0.00,0.00,0.00,3000.00,0.00,1.00,75.03,1.12,0.00,False,117,0,0,750.00,System,0.68,0.21,0.5,-255.00,
1414697123293,-1.00,0.00,-100.00,8.00,0.00,49.00,0.00,0.00,0.00,3000.00,0.00,1.00,75.05,1.13,-0.01,False,5,0,0,750.00,System,0.04,0.09,0.5,-255.00,
1414697123435,-1.00,0.00,-99.93,8.00,0.00,49.00,0.00,0.00,0.00,3000.00,0.00,0.00,75.04,1.13,-0.00,False,5,0,0,750.00,System,0.04,0.05,0.5,-255.00,
1414697123571,-1.00,0.00,-100.00,8.00,0.00,49.00,0.00,0.00,0.00,3000.00,0.00,0.00,75.03,1.14,0.02,False,5,0,0,750.00,System,0.04,0.03,0.5,-255.00,
1414697123723,-1.00,0.00,-100.00,8.00,0.00,49.00,0.00,0.00,0.00,3000.00,0.00,0.00,75.05,1.14,0.01,False,6,0,0,750.00,System,0.04,0.02,0.5,-255.00,
1414697123874,-1.00,0.00,-100.00,8.00,0.00,49.00,0.00,0.00,0.00,3000.00,0.00,0.00,75.08,1.16,-0.01,False,4,0,0,750.00,System,0.03,0.02,0.5,-255.00,
1414697124391,0.00,0.00,-100.00,8.00,0.00,49.00,0.00,0.00,0.00,3000.00,0.00,0.00,75.16,1.15,0.01,False,118,0,0,750.00,System,0.70,0.00,0.5,-49.00,
1414697124853,1.00,0.00,-99.92,8.00,0.00,49.00,0.00,0.00,0.00,3000.00,0.00,0.00,75.16,1.11,-0.01,False,1,0,0,750.00,System,0.00,0.01,0.5,99.00,
1414697125016,-1.00,0.00,-81.18,8.00,0.00,49.00,0.00,0.00,0.00,3000.00,0.00,0.00,75.17,1.10,0.01,False,1,0,0,750.00,System,0.01,0.01,0.5,400.00,
1414697125170,-1.00,0.00,-99.70,8.00,0.00,49.00,0.00,0.00,0.00,3000.00,0.00,0.00,75.18,1.10,0.04,False,5,0,0,750.00,System,0.08,0.03,0.5,400.00,
1414697125458,1.00,0.00,-100.00,8.00,0.00,49.00,0.00,0.00,0.00,3000.00,0.00,0.00,75.20,1.13,0.07,False,19,0,0,750.00,System,0.33,0.34,0.5,400.00,
1414697125842,1.00,0.00,-99.69,8.00,0.00,49.00,0.00,0.00,0.00,3000.00,0.00,0.00,75.22,1.12,0.06,False,117,0,0,750.00,System,2.06,0.69,0.5,400.00,
