time,READ Read_LMO,READ Read_RMO,READ Read_anglePIDOutput,READ Read_APIDKp,READ Read_APIDKi,READ Read_APIDKd,READ Read_APIDAggKp,READ Read_APIDAggKi,READ Read_APIDAggKd,READ Read_SPIDKp,READ Read_SPIDKi,READ Read_SPIDKd,READ Read_Yaw,READ Read_Roll,READ Read_Pitch,READ Read_MotorsON,READ Read_LoopT,READ Read_SetsteerGain,READ Read_SetthrottleGain,READ Read_TriggerAngleAggressive,READ Read_Info,READ Read_ISTE,READ Read_BAL,READ Read_calibratedZeroAngle,
1414434481652,,,-18.55,868.00,395.00,34.00,1970.00,16.00,551.00,5668.00,0.00,50.00,-7.21,0.65,1.43,False,5,0,0,750.00,System,0.17,0.35,180.00,
1414434481769,,,-18.55,868.00,395.00,34.00,1970.00,16.00,551.00,5668.00,0.00,50.00,-7.21,0.65,1.40,False,5,0,0,750.00,System,0.03,0.03,180.00,
1414434481915,,,-14.86,868.00,395.00,34.00,1970.00,16.00,551.00,5668.00,0.00,50.00,-6.75,0.69,0.75,False,7,0,0,750.00,System,0.10,0.10,180.00,
1414434482075,,,-3.17,868.00,395.00,34.00,1970.00,16.00,551.00,5668.00,0.00,50.00,-6.00,0.51,-0.57,False,6,0,0,750.00,System,0.11,0.22,180.00,
1414434482237,,,5.95,868.00,395.00,34.00,1970.00,16.00,551.00,5668.00,0.00,50.00,-5.20,0.59,1.09,False,6,0,0,750.00,System,0.00,0.00,180.00,
1414434482390,,,-0.45,868.00,395.00,34.00,1970.00,16.00,551.00,5668.00,0.00,50.00,-4.34,0.51,2.57,False,5,0,0,750.00,System,0.08,0.04,180.00,
1414434482551,,,-32.24,868.00,395.00,34.00,1970.00,16.00,551.00,5668.00,0.00,50.00,-4.45,0.40,-0.73,False,6,0,0,750.00,System,0.34,1.02,180.00,
1414434482710,,,-19.90,868.00,395.00,34.00,1970.00,16.00,551.00,5668.00,0.00,50.00,-4.82,0.44,-2.84,False,6,0,0,750.00,System,0.12,0.36,180.00,
1414434482865,,,14.15,868.00,395.00,34.00,1970.00,16.00,551.00,5668.00,0.00,50.00,-4.69,0.84,-1.05,False,5,0,0,750.00,System,0.00,0.00,180.00,
1414434483026,,,32.15,868.00,395.00,34.00,1970.00,16.00,551.00,5668.00,0.00,50.00,-4.29,0.87,1.09,False,7,0,0,750.00,System,0.00,0.00,180.00,
1414434483181,,,7.25,868.00,395.00,34.00,1970.00,16.00,551.00,5668.00,0.00,50.00,-4.33,0.96,1.78,False,5,0,0,750.00,System,0.02,0.02,180.00,
1414434483337,,,-12.55,868.00,395.00,34.00,1970.00,16.00,551.00,5668.00,0.00,50.00,-5.22,0.99,-0.09,False,5,0,0,750.00,System,0.14,0.29,180.00,
1414434483492,,,2.97,868.00,395.00,34.00,1970.00,16.00,551.00,5668.00,0.00,50.00,-5.18,0.94,0.54,False,7,0,0,750.00,System,0.03,0.01,180.00,
1414434483664,,,9.58,868.00,395.00,34.00,1970.00,16.00,551.00,5668.00,0.00,50.00,-4.98,1.02,1.50,False,5,0,0,750.00,System,0.01,0.01,180.00,
1414434483836,,,4.23,868.00,395.00,34.00,1970.00,16.00,551.00,5668.00,0.00,50.00,-4.90,1.01,1.89,False,6,0,0,750.00,System,0.02,0.01,180.00,
1414434483973,,,-5.20,868.00,395.00,34.00,1970.00,16.00,551.00,5668.00,0.00,50.00,-4.45,1.03,-1.59,False,6,0,0,750.00,System,0.22,0.45,180.00,
1414434484144,,,30.27,868.00,395.00,34.00,1970.00,16.00,551.00,5668.00,0.00,50.00,-4.08,1.16,0.91,False,5,0,0,750.00,System,0.00,0.00,180.00,
1414434484284,,,5.25,868.00,395.00,34.00,1970.00,16.00,551.00,5668.00,0.00,50.00,-4.35,1.10,1.59,False,6,0,0,750.00,System,0.00,0.00,180.00,
1414434484459,,,14.22,868.00,395.00,34.00,1970.00,16.00,551.00,5668.00,0.00,50.00,-5.11,0.94,1.67,False,5,0,0,750.00,System,0.05,0.05,180.00,
1414434484599,,,26.81,868.00,395.00,34.00,1970.00,16.00,551.00,5668.00,0.00,50.00,-5.27,0.88,2.85,False,5,0,0,750.00,System,0.03,0.05,180.00,
1414434484755,,,-5.69,868.00,395.00,34.00,1970.00,16.00,551.00,5668.00,0.00,50.00,-5.74,0.84,1.50,False,5,0,0,750.00,System,0.14,0.07,180.00,
1414434484914,,,-0.24,868.00,395.00,34.00,1970.00,16.00,551.00,5668.00,0.00,50.00,-6.18,0.77,1.00,False,5,0,0,750.00,System,0.04,0.04,180.00,
1414434485072,,,21.52,868.00,395.00,34.00,1970.00,16.00,551.00,5668.00,0.00,50.00,-6.34,0.81,3.34,False,7,0,0,750.00,System,0.00,0.00,180.00,
1414434485231,,,-1.70,868.00,395.00,34.00,1970.00,16.00,551.00,5668.00,0.00,50.00,-7.24,0.77,1.05,False,6,0,0,750.00,System,0.12,0.12,180.00,
1414434485385,,,15.47,868.00,395.00,34.00,1970.00,16.00,551.00,5668.00,0.00,50.00,-7.41,0.86,1.49,False,6,0,0,750.00,System,0.01,0.02,180.00,
1414434485549,,,32.00,868.00,395.00,34.00,1970.00,16.00,551.00,5668.00,0.00,50.00,-7.27,0.98,3.53,False,6,0,0,750.00,System,0.01,0.03,180.00,
1414434485713,,,9.20,868.00,395.00,34.00,1970.00,16.00,551.00,5668.00,0.00,50.00,-7.18,0.94,3.20,False,6,0,0,750.00,System,0.05,0.15,180.00,
1414434485889,,,24.55,868.00,395.00,34.00,1970.00,16.00,551.00,5668.00,0.00,50.00,-7.69,1.06,2.92,False,5,0,0,750.00,System,0.03,0.07,180.00,
1414434486032,,,28.79,868.00,395.00,34.00,1970.00,16.00,551.00,5668.00,0.00,50.00,-7.77,1.14,3.00,False,5,0,0,750.00,System,0.03,0.07,180.00,
1414434486211,,,20.02,868.00,395.00,34.00,1970.00,16.00,551.00,5668.00,0.00,50.00,-7.74,1.22,2.46,False,5,0,0,750.00,System,0.02,0.05,180.00,
1414434486351,,,30.84,868.00,395.00,34.00,1970.00,16.00,551.00,5668.00,0.00,50.00,-8.72,1.20,2.49,False,6,0,0,750.00,System,0.02,0.06,180.00,
1414434486502,,,36.25,868.00,395.00,34.00,1970.00,16.00,551.00,5668.00,0.00,50.00,-10.43,1.61,2.76,False,5,0,0,750.00,System,0.06,0.15,180.00,
1414434486679,,,32.85,868.00,395.00,34.00,1970.00,16.00,551.00,5668.00,0.00,50.00,-12.12,1.57,5.30,False,5,0,0,750.00,System,0.03,0.09,180.00,
1414434486839,,,-4.13,868.00,395.00,34.00,1970.00,16.00,551.00,5668.00,0.00,50.00,-14.20,1.50,3.04,False,6,0,0,750.00,System,0.20,0.41,180.00,
1414434486999,,,10.68,868.00,395.00,34.00,1970.00,16.00,551.00,5668.00,0.00,50.00,-14.77,1.55,4.45,False,7,0,0,750.00,System,0.02,0.07,180.00,
1414434487175,,,1.76,868.00,395.00,34.00,1970.00,16.00,551.00,5668.00,0.00,50.00,-15.36,1.43,3.92,False,5,0,0,750.00,System,0.21,0.11,180.00,
1414434487317,,,-14.95,868.00,395.00,34.00,1970.00,16.00,551.00,5668.00,0.00,50.00,-15.92,1.35,1.63,False,5,0,0,750.00,System,0.17,0.17,180.00,
1414434487495,,,2.71,868.00,395.00,34.00,1970.00,16.00,551.00,5668.00,0.00,50.00,-16.53,1.28,2.34,False,6,0,0,750.00,System,0.05,0.11,180.00,
1414434487625,,,24.55,868.00,395.00,34.00,1970.00,16.00,551.00,5668.00,0.00,50.00,-17.00,1.33,5.96,False,7,0,0,750.00,System,0.06,0.12,180.00,
1414434487784,,,-9.44,868.00,395.00,34.00,1970.00,16.00,551.00,5668.00,0.00,50.00,-18.01,1.05,3.62,False,6,0,0,750.00,System,0.32,0.32,180.00,
1414434487949,,,-10.78,868.00,395.00,34.00,1970.00,16.00,551.00,5668.00,0.00,50.00,-18.23,1.05,1.61,False,5,0,0,750.00,System,0.25,0.37,180.00,
1414434488125,,,5.39,868.00,395.00,34.00,1970.00,16.00,551.00,5668.00,0.00,50.00,-18.35,0.93,1.79,False,6,0,0,750.00,System,0.07,0.07,180.00,
1414434488260,,,11.46,868.00,395.00,34.00,1970.00,16.00,551.00,5668.00,0.00,50.00,-18.53,0.87,1.69,False,6,0,0,750.00,System,0.04,0.04,180.00,
1414434488412,,,35.35,868.00,395.00,34.00,1970.00,16.00,551.00,5668.00,0.00,50.00,-18.72,0.60,3.25,False,6,0,0,750.00,System,0.07,0.07,180.00,
1414434488593,,,2.67,868.00,395.00,34.00,1970.00,16.00,551.00,5668.00,0.00,50.00,-18.24,0.49,3.92,False,10,0,0,750.00,System,0.11,0.44,180.00,
1414434488735,,,1.57,868.00,395.00,34.00,1970.00,16.00,551.00,5668.00,0.00,50.00,-18.91,0.42,4.42,False,5,0,0,750.00,System,0.16,0.24,180.00,
1414434488916,,,-8.58,868.00,395.00,34.00,1970.00,16.00,551.00,5668.00,0.00,50.00,-19.26,0.47,3.16,False,5,0,0,750.00,System,0.20,0.20,180.00,
1414434489051,,,-2.09,868.00,395.00,34.00,1970.00,16.00,551.00,5668.00,0.00,50.00,-19.38,0.44,2.01,False,6,0,0,750.00,System,0.23,0.23,180.00,
1414434489229,,,10.34,868.00,395.00,34.00,1970.00,16.00,551.00,5668.00,0.00,50.00,-19.87,0.66,2.17,False,6,0,0,750.00,System,0.05,0.07,180.00,
1414434489370,,,28.92,868.00,395.00,34.00,1970.00,16.00,551.00,5668.00,0.00,50.00,-19.91,0.73,3.22,False,6,0,0,750.00,System,0.03,0.04,180.00,
1414434489542,,,-1.61,868.00,395.00,34.00,1970.00,16.00,551.00,5668.00,0.00,50.00,-20.60,0.62,2.35,False,6,0,0,750.00,System,0.19,0.19,180.00,
1414434489685,,,-7.81,868.00,395.00,34.00,1970.00,16.00,551.00,5668.00,0.00,50.00,-20.45,0.65,2.08,False,7,0,0,750.00,System,0.13,0.20,180.00,
1414434489847,,,11.44,868.00,395.00,34.00,1970.00,16.00,551.00,5668.00,0.00,50.00,-19.89,0.63,3.23,False,5,0,0,750.00,System,0.01,0.03,180.00,
1414434490026,,,3.10,868.00,395.00,34.00,1970.00,16.00,551.00,5668.00,0.00,50.00,-19.99,0.61,2.96,False,5,0,0,750.00,System,0.11,0.05,180.00,
1414434490165,,,-3.29,868.00,395.00,34.00,1970.00,16.00,551.00,5668.00,0.00,50.00,-20.70,0.57,2.16,False,6,0,0,750.00,System,0.17,0.17,180.00,
1414434490341,,,8.13,868.00,395.00,34.00,1970.00,16.00,551.00,5668.00,0.00,50.00,-20.73,0.42,3.01,False,5,0,0,750.00,System,0.02,0.04,180.00,
1414434490475,,,2.19,868.00,395.00,34.00,1970.00,16.00,551.00,5668.00,0.00,50.00,-20.30,0.37,3.66,False,5,0,0,750.00,System,0.10,0.10,180.00,
1414434490631,,,-14.05,868.00,395.00,34.00,1970.00,16.00,551.00,5668.00,0.00,50.00,-19.28,0.32,2.94,False,5,0,0,750.00,System,0.23,0.34,180.00,
1414434490815,,,-35.83,868.00,395.00,34.00,1970.00,16.00,551.00,5668.00,0.00,50.00,-18.68,0.42,1.89,False,6,0,0,750.00,System,0.28,0.42,180.00,
1414434490948,,,-19.61,868.00,395.00,34.00,1970.00,16.00,551.00,5668.00,0.00,50.00,-19.23,0.46,0.35,False,5,0,0,750.00,System,0.16,0.16,180.00,
1414434491107,,,15.19,868.00,395.00,34.00,1970.00,16.00,551.00,5668.00,0.00,50.00,-20.20,0.55,2.37,False,6,0,0,750.00,System,0.00,0.00,180.00,
1414434491279,,,-2.76,868.00,395.00,34.00,1970.00,16.00,551.00,5668.00,0.00,50.00,-20.60,0.50,2.53,False,5,0,0,750.00,System,0.14,0.14,180.00,
1414434491424,,,-9.61,868.00,395.00,34.00,1970.00,16.00,551.00,5668.00,0.00,50.00,-20.94,0.51,2.70,False,6,0,0,750.00,System,0.09,0.05,180.00,
1414434491594,,,-17.11,868.00,395.00,34.00,1970.00,16.00,551.00,5668.00,0.00,50.00,-20.64,0.40,2.19,False,6,0,0,750.00,System,0.10,0.05,180.00,
1414434491733,,,-1.87,868.00,395.00,34.00,1970.00,16.00,551.00,5668.00,0.00,50.00,-20.72,0.41,2.76,False,5,0,0,750.00,System,0.11,0.11,180.00,
1414434491896,,,-17.67,868.00,395.00,34.00,1970.00,16.00,551.00,5668.00,0.00,50.00,-20.86,0.63,1.43,False,5,0,0,750.00,System,0.23,0.80,180.00,
1414434492056,,,-16.81,868.00,395.00,34.00,1970.00,16.00,551.00,5668.00,0.00,50.00,-21.18,0.69,0.53,False,6,0,0,750.00,System,0.24,0.98,180.00,
1414434492214,,,-14.72,868.00,395.00,34.00,1970.00,16.00,551.00,5668.00,0.00,50.00,-21.02,0.69,0.11,False,6,0,0,750.00,System,0.24,0.83,180.00,
1414434492382,,,-14.68,868.00,395.00,34.00,1970.00,16.00,551.00,5668.00,0.00,50.00,-21.21,0.54,-0.38,False,6,0,0,750.00,System,0.07,0.21,180.00,
1414434492524,,,-4.27,868.00,395.00,34.00,1970.00,16.00,551.00,5668.00,0.00,50.00,-20.84,0.54,0.15,False,6,0,0,750.00,System,0.03,0.08,180.00,
1414434492686,,,-11.87,868.00,395.00,34.00,1970.00,16.00,551.00,5668.00,0.00,50.00,-20.05,0.39,0.55,False,6,0,0,750.00,System,0.04,0.10,180.00,
1414434492863,,,-16.89,868.00,395.00,34.00,1970.00,16.00,551.00,5668.00,0.00,50.00,-19.44,0.10,0.72,False,5,0,0,750.00,System,0.13,0.39,180.00,
1414434493002,,,-41.57,868.00,395.00,34.00,1970.00,16.00,551.00,5668.00,0.00,50.00,-18.65,0.16,-0.14,False,5,0,0,750.00,System,0.17,0.51,180.00,
1414434493168,,,-16.30,868.00,395.00,34.00,1970.00,16.00,551.00,5668.00,0.00,50.00,-17.89,0.26,0.25,False,5,0,0,750.00,System,0.03,0.06,180.00,
1414434493331,,,-32.70,868.00,395.00,34.00,1970.00,16.00,551.00,5668.00,0.00,50.00,-16.66,0.37,-1.89,False,6,0,0,750.00,System,0.17,0.61,180.00,
1414434493487,,,-4.91,868.00,395.00,34.00,1970.00,16.00,551.00,5668.00,0.00,50.00,-15.13,0.30,-0.24,False,5,0,0,750.00,System,0.02,0.03,180.00,
1414434493662,,,5.49,868.00,395.00,34.00,1970.00,16.00,551.00,5668.00,0.00,50.00,-13.25,0.28,2.83,False,6,0,0,750.00,System,0.08,0.08,180.00,
1414434493866,,,-45.23,868.00,395.00,34.00,1970.00,16.00,551.00,5668.00,0.00,50.00,-12.22,0.20,1.41,False,6,0,0,750.00,System,0.47,1.89,180.00,
1414434493982,,,-55.48,868.00,395.00,34.00,1970.00,16.00,551.00,5668.00,0.00,50.00,-12.05,0.72,-0.33,False,6,0,0,750.00,System,0.26,0.92,180.00,
1414434494122,,,-26.11,868.00,395.00,34.00,1970.00,16.00,551.00,5668.00,0.00,50.00,-11.92,0.86,-3.35,False,5,0,0,750.00,System,0.27,1.78,180.00,
1414434494302,,,-24.34,868.00,395.00,34.00,1970.00,16.00,551.00,5668.00,0.00,50.00,-11.37,0.96,-3.69,False,6,0,0,750.00,System,0.05,0.26,180.00,
1414434494440,,,-12.81,868.00,395.00,34.00,1970.00,16.00,551.00,5668.00,0.00,50.00,-10.63,0.93,-3.07,False,6,0,0,750.00,System,0.01,0.04,180.00,
1414434494600,,,-15.07,868.00,395.00,34.00,1970.00,16.00,551.00,5668.00,0.00,50.00,-10.13,0.55,0.20,False,5,0,0,750.00,System,0.01,0.01,180.00,
1414434494756,,,-24.09,868.00,395.00,34.00,1970.00,16.00,551.00,5668.00,0.00,50.00,-10.32,0.31,-0.67,False,7,0,0,750.00,System,0.13,0.40,180.00,
1414434494916,,,-40.47,868.00,395.00,34.00,1970.00,16.00,551.00,5668.00,0.00,50.00,-9.89,0.57,-1.05,False,5,0,0,750.00,System,0.41,2.25,180.00,
1414434495076,,,-35.81,868.00,395.00,34.00,1970.00,16.00,551.00,5668.00,0.00,50.00,-9.44,0.56,-1.90,False,6,0,0,750.00,System,0.02,0.06,180.00,
1414434495237,,,-5.05,868.00,395.00,34.00,1970.00,16.00,551.00,5668.00,0.00,50.00,-8.49,0.20,-1.58,False,6,0,0,750.00,System,0.11,0.54,180.00,
1414434495391,,,-47.67,868.00,395.00,34.00,1970.00,16.00,551.00,5668.00,0.00,50.00,-7.74,0.16,-1.56,False,7,0,0,750.00,System,0.13,0.38,180.00,
1414434495567,,,-26.31,868.00,395.00,34.00,1970.00,16.00,551.00,5668.00,0.00,50.00,-6.63,0.37,-1.01,False,5,0,0,750.00,System,0.04,0.12,180.00,
1414434495711,,,-10.99,868.00,395.00,34.00,1970.00,16.00,551.00,5668.00,0.00,50.00,-5.19,0.09,0.11,False,6,0,0,750.00,System,0.01,0.02,180.00,
1414434495886,,,-27.73,868.00,395.00,34.00,1970.00,16.00,551.00,5668.00,0.00,50.00,-4.49,0.11,-0.49,False,6,0,0,750.00,System,0.06,0.17,180.00,
1414434496042,,,-24.46,868.00,395.00,34.00,1970.00,16.00,551.00,5668.00,0.00,50.00,-3.82,-0.02,-3.70,False,5,0,0,750.00,System,0.20,0.80,180.00,
1414434496218,,,-7.38,868.00,395.00,34.00,1970.00,16.00,551.00,5668.00,0.00,50.00,-2.50,-0.11,-2.81,False,5,0,0,750.00,System,0.00,0.00,180.00,
1414434496358,,,7.20,868.00,395.00,34.00,1970.00,16.00,551.00,5668.00,0.00,50.00,-1.19,0.05,-1.06,False,6,0,0,750.00,System,0.00,0.00,180.00,
1414434496517,,,39.64,868.00,395.00,34.00,1970.00,16.00,551.00,5668.00,0.00,50.00,-0.91,0.14,0.44,False,5,0,0,750.00,System,0.04,0.06,180.00,
1414434496673,,,-15.45,868.00,395.00,34.00,1970.00,16.00,551.00,5668.00,0.00,50.00,-1.04,0.37,-0.51,False,6,0,0,750.00,System,0.14,0.14,180.00,
1414434496834,,,-9.76,868.00,395.00,34.00,1970.00,16.00,551.00,5668.00,0.00,50.00,-1.09,0.54,-0.65,False,5,0,0,750.00,System,0.02,0.03,180.00,
1414434497009,,,5.91,868.00,395.00,34.00,1970.00,16.00,551.00,5668.00,0.00,50.00,-0.88,0.66,0.59,False,6,0,0,750.00,System,0.00,0.00,180.00,
1414434497150,,,19.49,868.00,395.00,34.00,1970.00,16.00,551.00,5668.00,0.00,50.00,-0.52,0.77,1.71,False,7,0,0,750.00,System,0.01,0.01,180.00,
1414434497307,,,-4.27,868.00,395.00,34.00,1970.00,16.00,551.00,5668.00,0.00,50.00,-0.36,0.89,0.23,False,5,0,0,750.00,System,0.14,0.14,180.00,
1414434497463,,,11.46,868.00,395.00,34.00,1970.00,16.00,551.00,5668.00,0.00,50.00,-0.33,1.04,0.83,False,6,0,0,750.00,System,0.03,0.01,180.00,
1414434497624,,,8.37,868.00,395.00,34.00,1970.00,16.00,551.00,5668.00,0.00,50.00,0.08,0.98,0.52,False,5,0,0,750.00,System,0.02,0.03,180.00,
1414434497776,,,31.82,868.00,395.00,34.00,1970.00,16.00,551.00,5668.00,0.00,50.00,0.32,0.92,0.62,False,6,0,0,750.00,System,0.01,0.02,180.00,
1414434497931,,,38.40,868.00,395.00,34.00,1970.00,16.00,551.00,5668.00,0.00,50.00,0.36,0.92,1.14,False,6,0,0,750.00,System,0.00,0.00,180.00,
1414434498094,,,16.57,868.00,395.00,34.00,1970.00,16.00,551.00,5668.00,0.00,50.00,0.17,0.70,1.28,False,5,0,0,750.00,System,0.01,0.02,180.00,
1414434498250,,,14.69,868.00,395.00,34.00,1970.00,16.00,551.00,5668.00,0.00,50.00,-0.69,0.61,0.86,False,5,0,0,750.00,System,0.00,0.00,180.00,
1414434498406,,,100.00,868.00,395.00,34.00,1970.00,16.00,551.00,5668.00,0.00,50.00,-1.69,0.64,3.68,False,5,0,0,750.00,System,0.00,0.00,180.00,
1414434498561,,,50.21,868.00,395.00,34.00,1970.00,16.00,551.00,5668.00,0.00,50.00,-3.17,0.41,4.05,False,6,0,0,750.00,System,0.14,0.61,180.00,
1414434498720,,,30.03,868.00,395.00,34.00,1970.00,16.00,551.00,5668.00,0.00,50.00,-4.37,0.98,3.65,False,7,0,0,750.00,System,0.15,0.38,180.00,
1414434498901,,,23.98,868.00,395.00,34.00,1970.00,16.00,551.00,5668.00,0.00,50.00,-4.86,1.07,2.49,False,5,0,0,750.00,System,0.00,0.00,180.00,
1414434499035,,,53.03,868.00,395.00,34.00,1970.00,16.00,551.00,5668.00,0.00,50.00,-6.10,0.80,2.44,False,6,0,0,750.00,System,0.04,0.12,180.00,
1414434499196,,,82.21,868.00,395.00,34.00,1970.00,16.00,551.00,5668.00,0.00,50.00,-6.58,1.05,3.06,False,6,0,0,750.00,System,0.03,0.15,180.00,
1414434499357,,,58.16,868.00,395.00,34.00,1970.00,16.00,551.00,5668.00,0.00,50.00,-7.65,0.40,3.44,False,6,0,0,750.00,System,0.00,0.00,180.00,
1414434499516,,,34.81,868.00,395.00,34.00,1970.00,16.00,551.00,5668.00,0.00,50.00,-9.36,0.91,3.76,False,6,0,0,750.00,System,0.01,0.07,180.00,
1414434499679,,,62.99,868.00,395.00,34.00,1970.00,16.00,551.00,5668.00,0.00,50.00,-11.89,1.46,4.12,False,6,0,0,750.00,System,0.02,0.09,180.00,
1414434499818,,,64.82,868.00,395.00,34.00,1970.00,16.00,551.00,5668.00,0.00,50.00,-14.21,0.27,6.11,False,7,0,0,750.00,System,0.00,0.01,180.00,
1414434499991,,,15.76,868.00,395.00,34.00,1970.00,16.00,551.00,5668.00,0.00,50.00,-16.57,0.40,8.68,False,6,0,0,750.00,System,0.01,0.06,180.00,
1414434500133,,,4.44,868.00,395.00,34.00,1970.00,16.00,551.00,5668.00,0.00,50.00,-18.23,0.32,7.40,False,6,0,0,750.00,System,0.20,1.01,180.00,
1414434500313,,,12.27,868.00,395.00,34.00,1970.00,16.00,551.00,5668.00,0.00,50.00,-20.70,1.42,5.27,False,7,0,0,750.00,System,0.65,1.62,180.00,
1414434500454,,,30.12,868.00,395.00,34.00,1970.00,16.00,551.00,5668.00,0.00,50.00,-21.86,1.31,3.88,False,5,0,0,750.00,System,0.08,0.26,180.00,
1414434500630,,,45.70,868.00,395.00,34.00,1970.00,16.00,551.00,5668.00,0.00,50.00,-23.13,1.60,3.24,False,5,0,0,750.00,System,0.18,0.44,180.00,
1414434500773,,,37.53,868.00,395.00,34.00,1970.00,16.00,551.00,5668.00,0.00,50.00,-24.56,1.67,7.13,False,6,0,0,750.00,System,0.00,0.00,180.00,
1414434500932,,,20.61,868.00,395.00,34.00,1970.00,16.00,551.00,5668.00,0.00,50.00,-26.17,0.48,7.34,False,7,0,0,750.00,System,0.15,0.44,180.00,
1414434501088,,,-15.62,868.00,395.00,34.00,1970.00,16.00,551.00,5668.00,0.00,50.00,-27.70,0.52,3.33,False,6,0,0,750.00,System,0.28,0.42,180.00,
1414434501245,,,17.11,868.00,395.00,34.00,1970.00,16.00,551.00,5668.00,0.00,50.00,-28.88,0.46,4.23,False,5,0,0,750.00,System,0.06,0.17,180.00,
1414434501398,,,11.90,868.00,395.00,34.00,1970.00,16.00,551.00,5668.00,0.00,50.00,-29.98,0.28,6.93,False,6,0,0,750.00,System,0.06,0.23,180.00,
1414434501559,,,-0.54,868.00,395.00,34.00,1970.00,16.00,551.00,5668.00,0.00,50.00,-30.87,0.94,4.21,False,8,0,0,750.00,System,0.47,0.93,180.00,
1414434501740,,,17.37,868.00,395.00,34.00,1970.00,16.00,551.00,5668.00,0.00,50.00,-31.91,0.77,6.09,False,4,0,0,750.00,System,0.04,0.11,180.00,
1414434501899,,,-17.68,868.00,395.00,34.00,1970.00,16.00,551.00,5668.00,0.00,50.00,-32.23,0.79,0.86,False,6,0,0,750.00,System,0.09,0.23,180.00,
1414434502075,,,32.86,868.00,395.00,34.00,1970.00,16.00,551.00,5668.00,0.00,50.00,-32.67,0.95,4.21,False,5,0,0,750.00,System,0.00,0.00,180.00,
1414434502215,,,17.17,868.00,395.00,34.00,1970.00,16.00,551.00,5668.00,0.00,50.00,-32.66,0.85,8.10,False,6,0,0,750.00,System,0.03,0.12,180.00,
1414434502387,,,-44.05,868.00,395.00,34.00,1970.00,16.00,551.00,5668.00,0.00,50.00,-33.33,0.74,4.51,False,6,0,0,750.00,System,0.89,1.78,180.00,
1414434502522,,,-22.72,868.00,395.00,34.00,1970.00,16.00,551.00,5668.00,0.00,50.00,-34.38,0.76,3.03,False,5,0,0,750.00,System,0.52,2.36,180.00,
1414434502682,,,-39.45,868.00,395.00,34.00,1970.00,16.00,551.00,5668.00,0.00,50.00,-34.83,0.72,2.66,False,6,0,0,750.00,System,0.08,0.17,180.00,
1414434502834,,,-16.93,868.00,395.00,34.00,1970.00,16.00,551.00,5668.00,0.00,50.00,-34.71,0.47,1.45,False,5,0,0,750.00,System,0.37,1.65,180.00,
1414434503024,,,-32.64,868.00,395.00,34.00,1970.00,16.00,551.00,5668.00,0.00,50.00,-34.18,0.26,-0.78,False,6,0,0,750.00,System,0.39,1.75,180.00,
1414434503166,,,-25.11,868.00,395.00,34.00,1970.00,16.00,551.00,5668.00,0.00,50.00,-33.72,0.33,-2.95,False,7,0,0,750.00,System,0.33,1.82,180.00,
1414434503340,,,-4.73,868.00,395.00,34.00,1970.00,16.00,551.00,5668.00,0.00,50.00,-32.97,0.61,-4.10,False,5,0,0,750.00,System,0.01,0.03,180.00,
1414434503476,,,33.38,868.00,395.00,34.00,1970.00,16.00,551.00,5668.00,0.00,50.00,-32.13,0.56,1.42,False,6,0,0,750.00,System,0.05,0.02,180.00,
1414434503636,,,-1.45,868.00,395.00,34.00,1970.00,16.00,551.00,5668.00,0.00,50.00,-31.67,0.72,2.60,False,5,0,0,750.00,System,0.05,0.02,180.00,
1414434503812,,,-15.74,868.00,395.00,34.00,1970.00,16.00,551.00,5668.00,0.00,50.00,-31.67,0.69,2.07,False,6,0,0,750.00,System,0.26,0.64,180.00,
1414434503955,,,-32.13,868.00,395.00,34.00,1970.00,16.00,551.00,5668.00,0.00,50.00,-31.55,0.72,1.32,False,5,0,0,750.00,System,0.18,0.35,180.00,
1414434504111,,,-23.22,868.00,395.00,34.00,1970.00,16.00,551.00,5668.00,0.00,50.00,-31.42,0.71,0.97,False,6,0,0,750.00,System,0.04,0.06,180.00,
1414434504274,,,-17.37,868.00,395.00,34.00,1970.00,16.00,551.00,5668.00,0.00,50.00,-31.32,0.59,0.78,False,5,0,0,750.00,System,0.17,0.43,180.00,
1414434504427,,,-34.62,868.00,395.00,34.00,1970.00,16.00,551.00,5668.00,0.00,50.00,-30.38,0.83,0.95,False,5,0,0,750.00,System,0.15,0.31,180.00,
1414434504604,,,-36.86,868.00,395.00,34.00,1970.00,16.00,551.00,5668.00,0.00,50.00,-29.31,0.73,1.02,False,6,0,0,750.00,System,0.22,0.55,180.00,
1414434504747,,,-42.23,868.00,395.00,34.00,1970.00,16.00,551.00,5668.00,0.00,50.00,-28.04,0.81,-0.67,False,6,0,0,750.00,System,0.21,0.53,180.00,
1414434504923,,,-17.92,868.00,395.00,34.00,1970.00,16.00,551.00,5668.00,0.00,50.00,-27.04,0.53,0.65,False,5,0,0,750.00,System,0.04,0.11,180.00,
1414434505077,,,-33.53,868.00,395.00,34.00,1970.00,16.00,551.00,5668.00,0.00,50.00,-25.87,0.63,-0.79,False,6,0,0,750.00,System,0.27,0.80,180.00,
1414434505240,,,-20.06,868.00,395.00,34.00,1970.00,16.00,551.00,5668.00,0.00,50.00,-24.63,0.65,-1.61,False,5,0,0,750.00,System,0.07,0.20,180.00,
1414434505393,,,-13.13,868.00,395.00,34.00,1970.00,16.00,551.00,5668.00,0.00,50.00,-23.25,0.86,-4.89,False,5,0,0,750.00,System,0.32,1.10,180.00,
1414434505574,,,39.07,868.00,395.00,34.00,1970.00,16.00,551.00,5668.00,0.00,50.00,-20.27,0.86,-0.79,False,5,0,0,750.00,System,0.07,0.07,180.00,
1414434505719,,,25.42,868.00,395.00,34.00,1970.00,16.00,551.00,5668.00,0.00,50.00,-19.99,0.94,4.18,False,6,0,0,750.00,System,0.00,0.00,180.00,
1414434505870,,,-32.29,868.00,395.00,34.00,1970.00,16.00,551.00,5668.00,0.00,50.00,-20.34,1.07,1.99,False,5,0,0,750.00,System,0.23,0.47,180.00,
1414434506028,,,-38.70,868.00,395.00,34.00,1970.00,16.00,551.00,5668.00,0.00,50.00,-20.79,0.94,0.00,False,10,0,0,750.00,System,0.85,6.40,180.00,
1414434506204,,,-19.57,868.00,395.00,34.00,1970.00,16.00,551.00,5668.00,0.00,50.00,-21.07,1.23,-0.79,False,7,0,0,750.00,System,0.27,0.80,180.00,
1414434506417,,,-39.30,868.00,395.00,34.00,1970.00,16.00,551.00,5668.00,0.00,50.00,-20.96,1.26,-1.52,False,5,0,0,750.00,System,0.13,0.51,180.00,
1414434506499,,,-16.50,868.00,395.00,34.00,1970.00,16.00,551.00,5668.00,0.00,50.00,-20.15,1.18,0.21,False,5,0,0,750.00,System,0.01,0.02,180.00,
1414434506651,,,-17.91,868.00,395.00,34.00,1970.00,16.00,551.00,5668.00,0.00,50.00,-19.49,1.26,0.44,False,8,0,0,750.00,System,0.06,0.24,180.00,
1414434506802,,,-43.41,868.00,395.00,34.00,1970.00,16.00,551.00,5668.00,0.00,50.00,-19.07,1.41,-2.97,False,6,0,0,750.00,System,0.35,1.59,180.00,
1414434506961,,,-29.04,868.00,395.00,34.00,1970.00,16.00,551.00,5668.00,0.00,50.00,-18.73,1.00,-5.94,False,5,0,0,750.00,System,0.24,1.43,180.00,
1414434507137,,,-18.39,868.00,395.00,34.00,1970.00,16.00,551.00,5668.00,0.00,50.00,-18.45,0.99,-6.69,False,6,0,0,750.00,System,0.06,0.11,180.00,
1414434507280,,,-7.05,868.00,395.00,34.00,1970.00,16.00,551.00,5668.00,0.00,50.00,-18.78,0.92,-6.70,False,6,0,0,750.00,System,0.29,0.29,180.00,
1414434507436,,,1.35,868.00,395.00,34.00,1970.00,16.00,551.00,5668.00,0.00,50.00,-18.57,0.58,-4.27,False,6,0,0,750.00,System,0.42,0.63,180.00,
1414434507612,,,65.29,868.00,395.00,34.00,1970.00,16.00,551.00,5668.00,0.00,50.00,-18.69,0.46,-0.97,False,7,0,0,750.00,System,0.49,2.43,180.00,
1414434507752,,,75.96,868.00,395.00,34.00,1970.00,16.00,551.00,5668.00,0.00,50.00,-18.75,0.11,1.87,False,6,0,0,750.00,System,0.02,0.07,180.00,
1414434507912,,,38.84,868.00,395.00,34.00,1970.00,16.00,551.00,5668.00,0.00,50.00,-19.42,-1.11,3.28,False,5,0,0,750.00,System,0.02,0.04,180.00,
1414434508072,,,4.59,868.00,395.00,34.00,1970.00,16.00,551.00,5668.00,0.00,50.00,-20.00,-1.37,3.11,False,5,0,0,750.00,System,0.05,0.19,180.00,
1414434508226,,,25.95,868.00,395.00,34.00,1970.00,16.00,551.00,5668.00,0.00,50.00,-21.36,-1.14,2.56,False,5,0,0,750.00,System,0.04,0.09,180.00,
1414434508379,,,2.66,868.00,395.00,34.00,1970.00,16.00,551.00,5668.00,0.00,50.00,-23.05,-1.20,3.59,False,5,0,0,750.00,System,0.13,0.19,180.00,
1414434508538,,,-10.16,868.00,395.00,34.00,1970.00,16.00,551.00,5668.00,0.00,50.00,-23.92,-1.16,2.71,False,6,0,0,750.00,System,0.04,0.06,180.00,
1414434508696,,,-14.85,868.00,395.00,34.00,1970.00,16.00,551.00,5668.00,0.00,50.00,-25.00,-1.25,2.09,False,5,0,0,750.00,System,0.09,0.04,180.00,
1414434508845,,,-7.03,868.00,395.00,34.00,1970.00,16.00,551.00,5668.00,0.00,50.00,-25.19,-1.22,2.69,False,6,0,0,750.00,System,0.02,0.02,180.00,
1414434509001,,,-25.38,868.00,395.00,34.00,1970.00,16.00,551.00,5668.00,0.00,50.00,-24.35,-1.11,1.67,False,6,0,0,750.00,System,0.11,0.11,180.00,
1414434509154,,,-2.74,868.00,395.00,34.00,1970.00,16.00,551.00,5668.00,0.00,50.00,-24.41,-1.00,1.36,False,6,0,0,750.00,System,0.12,0.12,180.00,
1414434509305,,,-5.95,868.00,395.00,34.00,1970.00,16.00,551.00,5668.00,0.00,50.00,-24.74,-0.91,0.29,False,6,0,0,750.00,System,0.14,0.35,180.00,
1414434509459,,,-24.00,868.00,395.00,34.00,1970.00,16.00,551.00,5668.00,0.00,50.00,-24.27,-0.79,1.09,False,6,0,0,750.00,System,0.04,0.06,180.00,
1414434509640,,,-77.18,868.00,395.00,34.00,1970.00,16.00,551.00,5668.00,0.00,50.00,-23.32,-0.93,0.90,False,6,0,0,750.00,System,0.03,0.03,180.00,
1414434509780,,,-32.58,868.00,395.00,34.00,1970.00,16.00,551.00,5668.00,0.00,50.00,-23.26,-0.99,-0.63,False,5,0,0,750.00,System,0.12,0.19,180.00,
1414434509935,,,-2.39,868.00,395.00,34.00,1970.00,16.00,551.00,5668.00,0.00,50.00,-23.52,-0.76,1.37,False,6,0,0,750.00,System,0.01,0.01,180.00,
1414434510090,,,-100.00,868.00,395.00,34.00,1970.00,16.00,551.00,5668.00,0.00,50.00,-23.20,-0.60,-1.16,False,6,0,0,750.00,System,0.00,0.00,180.00,
1414434510254,,,-0.78,868.00,395.00,34.00,1970.00,16.00,551.00,5668.00,0.00,50.00,-23.32,-0.61,0.51,False,5,0,0,750.00,System,0.00,0.01,180.00,
1414434510416,,,-26.08,868.00,395.00,34.00,1970.00,16.00,551.00,5668.00,0.00,50.00,-22.85,-0.57,1.76,False,6,0,0,750.00,System,0.09,0.13,180.00,
1414434510567,,,-22.59,868.00,395.00,34.00,1970.00,16.00,551.00,5668.00,0.00,50.00,-22.38,-0.49,1.83,False,6,0,0,750.00,System,0.03,0.03,180.00,
1414434510725,,,-24.79,868.00,395.00,34.00,1970.00,16.00,551.00,5668.00,0.00,50.00,-22.19,-0.52,0.58,False,6,0,0,750.00,System,0.29,1.00,180.00,
1414434510890,,,-28.90,868.00,395.00,34.00,1970.00,16.00,551.00,5668.00,0.00,50.00,-22.09,-0.51,0.82,False,5,0,0,750.00,System,0.14,0.41,180.00,
1414434511050,,,-40.00,868.00,395.00,34.00,1970.00,16.00,551.00,5668.00,0.00,50.00,-21.12,-0.45,0.52,False,5,0,0,750.00,System,0.13,0.32,180.00,
1414434511197,,,-33.50,868.00,395.00,34.00,1970.00,16.00,551.00,5668.00,0.00,50.00,-20.62,-0.35,-0.59,False,6,0,0,750.00,System,0.10,0.29,180.00,
1414434511349,,,-36.05,868.00,395.00,34.00,1970.00,16.00,551.00,5668.00,0.00,50.00,-20.25,-0.46,-2.82,False,6,0,0,750.00,System,0.21,0.84,180.00,
1414434511508,,,2.04,868.00,395.00,34.00,1970.00,16.00,551.00,5668.00,0.00,50.00,-19.96,-0.24,-0.38,False,5,0,0,750.00,System,0.00,0.01,180.00,
1414434511689,,,-0.29,868.00,395.00,34.00,1970.00,16.00,551.00,5668.00,0.00,50.00,-19.92,-0.14,-0.76,False,6,0,0,750.00,System,0.15,0.44,180.00,
1414434511827,,,-14.37,868.00,395.00,34.00,1970.00,16.00,551.00,5668.00,0.00,50.00,-20.14,-0.23,-3.83,False,6,0,0,750.00,System,0.10,0.31,180.00,
1414434512003,,,20.10,868.00,395.00,34.00,1970.00,16.00,551.00,5668.00,0.00,50.00,-19.79,-0.30,-0.93,False,5,0,0,750.00,System,0.02,0.02,180.00,
1414434512143,,,7.51,868.00,395.00,34.00,1970.00,16.00,551.00,5668.00,0.00,50.00,-19.00,-0.27,1.04,False,5,0,0,750.00,System,0.01,0.01,180.00,
1414434512302,,,3.30,868.00,395.00,34.00,1970.00,16.00,551.00,5668.00,0.00,50.00,-19.23,-0.26,0.80,False,6,0,0,750.00,System,0.08,0.08,180.00,
1414434512449,,,6.75,868.00,395.00,34.00,1970.00,16.00,551.00,5668.00,0.00,50.00,-19.96,-0.20,1.26,False,15,0,0,750.00,System,0.10,0.25,180.00,
1414434512610,,,5.80,868.00,395.00,34.00,1970.00,16.00,551.00,5668.00,0.00,50.00,-20.73,-0.11,0.87,False,5,0,0,750.00,System,0.02,0.03,180.00,
1414434512786,,,30.35,868.00,395.00,34.00,1970.00,16.00,551.00,5668.00,0.00,50.00,-21.53,-0.12,1.06,False,6,0,0,750.00,System,0.01,0.01,180.00,
1414434512925,,,39.52,868.00,395.00,34.00,1970.00,16.00,551.00,5668.00,0.00,50.00,-23.15,-0.19,1.83,False,7,0,0,750.00,System,0.00,0.00,180.00,
1414434513080,,,84.28,868.00,395.00,34.00,1970.00,16.00,551.00,5668.00,0.00,50.00,-24.32,-0.11,3.97,False,7,0,0,750.00,System,0.19,0.29,180.00,
1414434513253,,,-2.71,868.00,395.00,34.00,1970.00,16.00,551.00,5668.00,0.00,50.00,-24.76,-0.50,2.37,False,6,0,0,750.00,System,0.19,0.28,180.00,
1414434513391,,,8.51,868.00,395.00,34.00,1970.00,16.00,551.00,5668.00,0.00,50.00,-24.56,-0.34,3.16,False,6,0,0,750.00,System,0.02,0.06,180.00,
1414434513550,,,11.07,868.00,395.00,34.00,1970.00,16.00,551.00,5668.00,0.00,50.00,-24.65,-0.35,2.02,False,5,0,0,750.00,System,0.12,0.18,180.00,
1414434513699,,,29.26,868.00,395.00,34.00,1970.00,16.00,551.00,5668.00,0.00,50.00,-24.60,-0.29,1.45,False,6,0,0,750.00,System,0.04,0.08,180.00,
1414434513858,,,39.27,868.00,395.00,34.00,1970.00,16.00,551.00,5668.00,0.00,50.00,-24.86,-0.35,1.64,False,5,0,0,750.00,System,0.01,0.03,180.00,
1414434514024,,,39.72,868.00,395.00,34.00,1970.00,16.00,551.00,5668.00,0.00,50.00,-25.54,-0.29,2.93,False,6,0,0,750.00,System,0.02,0.06,180.00,
1414434514178,,,2.18,868.00,395.00,34.00,1970.00,16.00,551.00,5668.00,0.00,50.00,-25.32,-0.34,4.14,False,6,0,0,750.00,System,0.02,0.08,180.00,
1414434514351,,,9.53,868.00,395.00,34.00,1970.00,16.00,551.00,5668.00,0.00,50.00,-25.81,-0.21,4.00,False,10,0,0,750.00,System,0.20,0.98,180.00,
1414434514506,,,20.61,868.00,395.00,34.00,1970.00,16.00,551.00,5668.00,0.00,50.00,-26.35,-0.20,5.55,False,6,0,0,750.00,System,0.08,0.24,180.00,
1414434514669,,,-9.21,868.00,395.00,34.00,1970.00,16.00,551.00,5668.00,0.00,50.00,-27.35,-0.38,1.62,False,5,0,0,750.00,System,0.22,0.11,180.00,
1414434514854,,,24.99,868.00,395.00,34.00,1970.00,16.00,551.00,5668.00,0.00,50.00,-28.08,-0.25,1.66,False,5,0,0,750.00,System,0.02,0.04,180.00,
1414434514995,,,64.66,868.00,395.00,34.00,1970.00,16.00,551.00,5668.00,0.00,50.00,-28.62,-0.52,5.58,False,6,0,0,750.00,System,0.02,0.08,180.00,
1414434515174,,,21.02,868.00,395.00,34.00,1970.00,16.00,551.00,5668.00,0.00,50.00,-30.01,0.07,6.39,False,5,0,0,750.00,System,0.06,0.24,180.00,
1414434515317,,,-8.28,868.00,395.00,34.00,1970.00,16.00,551.00,5668.00,0.00,50.00,-31.83,0.21,1.22,False,6,0,0,750.00,System,0.28,0.56,180.00,
1414434515567,,,44.29,868.00,395.00,34.00,1970.00,16.00,551.00,5668.00,0.00,50.00,-33.08,0.32,4.05,False,6,0,0,750.00,System,0.01,0.02,180.00,
1414434515669,,,34.10,868.00,395.00,34.00,1970.00,16.00,551.00,5668.00,0.00,50.00,-34.00,0.26,6.69,False,7,0,0,750.00,System,0.00,0.00,180.00,
1414434515776,,,-13.00,868.00,395.00,34.00,1970.00,16.00,551.00,5668.00,0.00,50.00,-34.47,1.22,4.18,False,6,0,0,750.00,System,0.23,0.59,180.00,
1414434515928,,,10.84,868.00,395.00,34.00,1970.00,16.00,551.00,5668.00,0.00,50.00,-35.22,1.29,3.50,False,5,0,0,750.00,System,0.06,0.19,180.00,
1414434516079,,,19.54,868.00,395.00,34.00,1970.00,16.00,551.00,5668.00,0.00,50.00,-35.92,1.31,4.96,False,10,0,0,750.00,System,0.33,1.34,180.00,
1414434516235,,,5.93,868.00,395.00,34.00,1970.00,16.00,551.00,5668.00,0.00,50.00,-36.49,1.38,4.61,False,5,0,0,750.00,System,0.12,0.19,180.00,
1414434516402,,,-0.74,868.00,395.00,34.00,1970.00,16.00,551.00,5668.00,0.00,50.00,-37.39,1.46,2.88,False,6,0,0,750.00,System,0.13,0.13,180.00,
1414434516566,,,16.39,868.00,395.00,34.00,1970.00,16.00,551.00,5668.00,0.00,50.00,-37.76,1.31,6.00,False,6,0,0,750.00,System,0.02,0.06,180.00,
1414434516727,,,-4.22,868.00,395.00,34.00,1970.00,16.00,551.00,5668.00,0.00,50.00,-37.69,1.13,4.91,False,5,0,0,750.00,System,0.17,0.17,180.00,
1414434516882,,,-16.29,868.00,395.00,34.00,1970.00,16.00,551.00,5668.00,0.00,50.00,-37.30,1.09,3.82,False,6,0,0,750.00,System,0.33,0.33,180.00,
1414434517042,,,-19.48,868.00,395.00,34.00,1970.00,16.00,551.00,5668.00,0.00,50.00,-36.71,1.05,3.24,False,6,0,0,750.00,System,0.18,0.26,180.00,
1414434517218,,,-34.32,868.00,395.00,34.00,1970.00,16.00,551.00,5668.00,0.00,50.00,-35.85,1.06,2.61,False,5,0,0,750.00,System,0.24,0.36,180.00,
1414434517357,,,-28.99,868.00,395.00,34.00,1970.00,16.00,551.00,5668.00,0.00,50.00,-35.72,1.24,2.86,False,6,0,0,750.00,System,0.23,0.23,180.00,
1414434517512,,,-68.52,868.00,395.00,34.00,1970.00,16.00,551.00,5668.00,0.00,50.00,-35.42,1.22,2.68,False,6,0,0,750.00,System,0.10,0.10,180.00,
1414434517668,,,-41.35,868.00,395.00,34.00,1970.00,16.00,551.00,5668.00,0.00,50.00,-35.15,1.22,1.45,False,6,0,0,750.00,System,0.28,0.96,180.00,
1414434517831,,,-19.56,868.00,395.00,34.00,1970.00,16.00,551.00,5668.00,0.00,50.00,-34.76,1.09,2.52,False,5,0,0,750.00,System,0.09,0.22,180.00,
1414434517979,,,-38.62,868.00,395.00,34.00,1970.00,16.00,551.00,5668.00,0.00,50.00,-34.16,1.32,1.17,False,5,0,0,750.00,System,0.13,0.25,180.00,
1414434518139,,,-16.49,868.00,395.00,34.00,1970.00,16.00,551.00,5668.00,0.00,50.00,-33.11,1.34,0.35,False,6,0,0,750.00,System,0.12,0.37,180.00,
1414434518295,,,2.72,868.00,395.00,34.00,1970.00,16.00,551.00,5668.00,0.00,50.00,-31.79,1.24,2.06,False,7,0,0,750.00,System,0.05,0.10,180.00,
1414434518466,,,-18.38,868.00,395.00,34.00,1970.00,16.00,551.00,5668.00,0.00,50.00,-30.07,1.21,-1.51,False,6,0,0,750.00,System,0.29,1.01,180.00,
1414434518606,,,16.71,868.00,395.00,34.00,1970.00,16.00,551.00,5668.00,0.00,50.00,-29.00,0.85,0.39,False,6,0,0,750.00,System,0.00,0.00,180.00,
1414434518762,,,23.09,868.00,395.00,34.00,1970.00,16.00,551.00,5668.00,0.00,50.00,-28.54,0.82,1.89,False,6,0,0,750.00,System,0.03,0.03,180.00,
1414434518913,,,2.02,868.00,395.00,34.00,1970.00,16.00,551.00,5668.00,0.00,50.00,-28.40,0.90,1.78,False,13,0,0,750.00,System,0.16,0.16,180.00,
1414434519097,,,-2.88,868.00,395.00,34.00,1970.00,16.00,551.00,5668.00,0.00,50.00,-28.50,0.98,0.15,False,6,0,0,750.00,System,0.15,0.23,180.00,
1414434519232,,,9.35,868.00,395.00,34.00,1970.00,16.00,551.00,5668.00,0.00,50.00,-29.02,1.18,1.18,False,5,0,0,750.00,System,0.02,0.02,180.00,
1414434519409,,,19.14,868.00,395.00,34.00,1970.00,16.00,551.00,5668.00,0.00,50.00,-29.28,1.20,2.39,False,6,0,0,750.00,System,0.04,0.07,180.00,
1414434519548,,,13.87,868.00,395.00,34.00,1970.00,16.00,551.00,5668.00,0.00,50.00,-29.94,1.14,3.11,False,5,0,0,750.00,System,0.05,0.07,180.00,
1414434519702,,,0.05,868.00,395.00,34.00,1970.00,16.00,551.00,5668.00,0.00,50.00,-31.20,1.32,2.09,False,5,0,0,750.00,System,0.16,0.16,180.00,
1414434519875,,,16.00,868.00,395.00,34.00,1970.00,16.00,551.00,5668.00,0.00,50.00,-31.65,1.32,3.82,False,6,0,0,750.00,System,0.02,0.05,180.00,
1414434520015,,,8.56,868.00,395.00,34.00,1970.00,16.00,551.00,5668.00,0.00,50.00,-31.81,1.29,2.83,False,6,0,0,750.00,System,0.11,0.16,180.00,
1414434520190,,,14.97,868.00,395.00,34.00,1970.00,16.00,551.00,5668.00,0.00,50.00,-32.23,1.53,3.19,False,6,0,0,750.00,System,0.18,0.27,180.00,
1414434520330,,,2.74,868.00,395.00,34.00,1970.00,16.00,551.00,5668.00,0.00,50.00,-32.69,1.50,3.62,False,5,0,0,750.00,System,0.05,0.12,180.00,
1414434520494,,,8.43,868.00,395.00,34.00,1970.00,16.00,551.00,5668.00,0.00,50.00,-32.90,1.54,2.93,False,6,0,0,750.00,System,0.17,0.17,180.00,
1414434520646,,,1.33,868.00,395.00,34.00,1970.00,16.00,551.00,5668.00,0.00,50.00,-32.85,1.40,2.07,False,7,0,0,750.00,System,0.09,0.14,180.00,
1414434520811,,,19.68,868.00,395.00,34.00,1970.00,16.00,551.00,5668.00,0.00,50.00,-33.35,1.28,1.79,False,6,0,0,750.00,System,0.01,0.01,180.00,
1414434520985,,,29.25,868.00,395.00,34.00,1970.00,16.00,551.00,5668.00,0.00,50.00,-33.29,1.39,2.90,False,6,0,0,750.00,System,0.02,0.04,180.00,
1414434521120,,,6.64,868.00,395.00,34.00,1970.00,16.00,551.00,5668.00,0.00,50.00,-32.98,1.44,5.26,False,6,0,0,750.00,System,0.02,0.05,180.00,
1414434521276,,,0.44,868.00,395.00,34.00,1970.00,16.00,551.00,5668.00,0.00,50.00,-32.73,1.47,3.44,False,5,0,0,750.00,System,0.18,0.18,180.00,
1414434521432,,,5.46,868.00,395.00,34.00,1970.00,16.00,551.00,5668.00,0.00,50.00,-33.23,1.49,3.47,False,6,0,0,750.00,System,0.09,0.18,180.00,
1414434521608,,,-0.58,868.00,395.00,34.00,1970.00,16.00,551.00,5668.00,0.00,50.00,-34.10,1.37,2.61,False,6,0,0,750.00,System,0.09,0.09,180.00,
1414434521748,,,4.05,868.00,395.00,34.00,1970.00,16.00,551.00,5668.00,0.00,50.00,-33.38,1.27,4.92,False,6,0,0,750.00,System,0.04,0.05,180.00,
1414434521907,,,-31.24,868.00,395.00,34.00,1970.00,16.00,551.00,5668.00,0.00,50.00,-33.65,1.19,1.63,False,5,0,0,750.00,System,0.20,0.20,180.00,
1414434522063,,,27.43,868.00,395.00,34.00,1970.00,16.00,551.00,5668.00,0.00,50.00,-33.63,1.39,1.81,False,6,0,0,750.00,System,0.01,0.01,180.00,
1414434522239,,,6.93,868.00,395.00,34.00,1970.00,16.00,551.00,5668.00,0.00,50.00,-33.22,1.54,2.79,False,7,0,0,750.00,System,0.06,0.16,180.00,
1414434522378,,,3.51,868.00,395.00,34.00,1970.00,16.00,551.00,5668.00,0.00,50.00,-33.31,1.31,3.13,False,6,0,0,750.00,System,0.03,0.10,180.00,
1414434522550,,,23.14,868.00,395.00,34.00,1970.00,16.00,551.00,5668.00,0.00,50.00,-34.32,0.88,3.79,False,5,0,0,750.00,System,0.11,0.28,180.00,
1414434522686,,,10.82,868.00,395.00,34.00,1970.00,16.00,551.00,5668.00,0.00,50.00,-35.74,1.07,5.19,False,5,0,0,750.00,System,0.01,0.03,180.00,
1414434522856,,,5.31,868.00,395.00,34.00,1970.00,16.00,551.00,5668.00,0.00,50.00,-37.56,1.24,3.96,False,6,0,0,750.00,System,0.31,0.15,180.00,
1414434523000,,,0.58,868.00,395.00,34.00,1970.00,16.00,551.00,5668.00,0.00,50.00,-37.78,1.22,2.78,False,6,0,0,750.00,System,0.20,0.10,180.00,
1414434523173,,,13.27,868.00,395.00,34.00,1970.00,16.00,551.00,5668.00,0.00,50.00,-37.88,1.24,2.58,False,5,0,0,750.00,System,0.06,0.09,180.00,
1414434523311,,,13.51,868.00,395.00,34.00,1970.00,16.00,551.00,5668.00,0.00,50.00,-38.75,1.34,2.55,False,5,0,0,750.00,System,0.06,0.08,180.00,
1414434523492,,,30.29,868.00,395.00,34.00,1970.00,16.00,551.00,5668.00,0.00,50.00,-40.13,1.09,3.01,False,5,0,0,750.00,System,0.05,0.15,180.00,
1414434523632,,,22.28,868.00,395.00,34.00,1970.00,16.00,551.00,5668.00,0.00,50.00,-41.62,1.32,3.95,False,5,0,0,750.00,System,0.01,0.02,180.00,
1414434523787,,,20.24,868.00,395.00,34.00,1970.00,16.00,551.00,5668.00,0.00,50.00,-43.46,1.60,4.68,False,6,0,0,750.00,System,0.11,0.27,180.00,
1414434523932,,,7.05,868.00,395.00,34.00,1970.00,16.00,551.00,5668.00,0.00,50.00,-45.15,1.57,3.91,False,5,0,0,750.00,System,0.09,0.19,180.00,
1414434524095,,,15.18,868.00,395.00,34.00,1970.00,16.00,551.00,5668.00,0.00,50.00,-46.16,1.78,4.10,False,6,0,0,750.00,System,0.17,0.17,180.00,
1414434524254,,,14.25,868.00,395.00,34.00,1970.00,16.00,551.00,5668.00,0.00,50.00,-46.65,1.88,5.79,False,6,0,0,750.00,System,0.06,0.14,180.00,
1414434524406,,,-10.14,868.00,395.00,34.00,1970.00,16.00,551.00,5668.00,0.00,50.00,-47.36,1.95,4.00,False,6,0,0,750.00,System,0.32,0.16,180.00,
1414434524566,,,-9.35,868.00,395.00,34.00,1970.00,16.00,551.00,5668.00,0.00,50.00,-47.99,1.96,2.46,False,5,0,0,750.00,System,0.30,0.30,180.00,
1414434524729,,,-1.43,868.00,395.00,34.00,1970.00,16.00,551.00,5668.00,0.00,50.00,-49.18,1.77,1.83,False,7,0,0,750.00,System,0.10,0.10,180.00,
1414434524865,,,21.87,868.00,395.00,34.00,1970.00,16.00,551.00,5668.00,0.00,50.00,-49.43,1.70,3.91,False,5,0,0,750.00,System,0.00,0.01,180.00,
1414434525036,,,-13.03,868.00,395.00,34.00,1970.00,16.00,551.00,5668.00,0.00,50.00,-49.60,1.53,2.85,False,5,0,0,750.00,System,0.20,0.10,180.00,
1414434525197,,,-2.27,868.00,395.00,34.00,1970.00,16.00,551.00,5668.00,0.00,50.00,-49.99,1.44,2.36,False,6,0,0,750.00,System,0.18,0.18,180.00,
1414434525372,,,2.00,868.00,395.00,34.00,1970.00,16.00,551.00,5668.00,0.00,50.00,-50.23,1.42,3.67,False,6,0,0,750.00,System,0.08,0.04,180.00,
1414434525508,,,-16.70,868.00,395.00,34.00,1970.00,16.00,551.00,5668.00,0.00,50.00,-50.53,1.35,2.45,False,5,0,0,750.00,System,0.25,0.63,180.00,
1414434525683,,,-13.94,868.00,395.00,34.00,1970.00,16.00,551.00,5668.00,0.00,50.00,-50.76,1.26,1.91,False,7,0,0,750.00,System,0.22,0.55,180.00,
1414434525822,,,-29.37,868.00,395.00,34.00,1970.00,16.00,551.00,5668.00,0.00,50.00,-50.38,1.09,0.53,False,6,0,0,750.00,System,0.20,0.71,180.00,
1414434525978,,,-22.28,868.00,395.00,34.00,1970.00,16.00,551.00,5668.00,0.00,50.00,-49.57,1.27,-0.06,False,6,0,0,750.00,System,0.11,0.26,180.00,
1414434526141,,,-11.19,868.00,395.00,34.00,1970.00,16.00,551.00,5668.00,0.00,50.00,-48.92,1.32,0.69,False,6,0,0,750.00,System,0.08,0.17,180.00,
1414434526318,,,-25.48,868.00,395.00,34.00,1970.00,16.00,551.00,5668.00,0.00,50.00,-48.42,1.47,0.76,False,6,0,0,750.00,System,0.09,0.13,180.00,
1414434526464,,,-12.04,868.00,395.00,34.00,1970.00,16.00,551.00,5668.00,0.00,50.00,-48.91,1.27,1.40,False,6,0,0,750.00,System,0.07,0.18,180.00,
1414434526634,,,-22.17,868.00,395.00,34.00,1970.00,16.00,551.00,5668.00,0.00,50.00,-48.74,1.32,0.43,False,5,0,0,750.00,System,0.05,0.13,180.00,
1414434526776,,,-13.02,868.00,395.00,34.00,1970.00,16.00,551.00,5668.00,0.00,50.00,-48.77,1.51,-2.62,False,5,0,0,750.00,System,0.19,0.88,180.00,
1414434526954,,,4.71,868.00,395.00,34.00,1970.00,16.00,551.00,5668.00,0.00,50.00,-48.62,1.04,0.71,False,5,0,0,750.00,System,0.00,0.00,180.00,
1414434527094,,,-6.06,868.00,395.00,34.00,1970.00,16.00,551.00,5668.00,0.00,50.00,-48.16,1.06,0.66,False,5,0,0,750.00,System,0.15,0.37,180.00,
1414434527271,,,-28.54,868.00,395.00,34.00,1970.00,16.00,551.00,5668.00,0.00,50.00,-47.26,1.08,0.29,False,6,0,0,750.00,System,0.13,0.33,180.00,
1414434527445,,,-18.28,868.00,395.00,34.00,1970.00,16.00,551.00,5668.00,0.00,50.00,-46.00,1.07,-0.47,False,6,0,0,750.00,System,0.18,0.54,180.00,
1414434527588,,,-32.28,868.00,395.00,34.00,1970.00,16.00,551.00,5668.00,0.00,50.00,-44.43,1.19,-1.23,False,5,0,0,750.00,System,0.15,0.53,180.00,
1414434527748,,,-7.43,868.00,395.00,34.00,1970.00,16.00,551.00,5668.00,0.00,50.00,-43.69,1.26,0.50,False,5,0,0,750.00,System,0.01,0.02,180.00,
1414434527911,,,-43.34,868.00,395.00,34.00,1970.00,16.00,551.00,5668.00,0.00,50.00,-42.22,1.14,-1.21,False,6,0,0,750.00,System,0.16,0.58,180.00,
1414434528088,,,-1.01,868.00,395.00,34.00,1970.00,16.00,551.00,5668.00,0.00,50.00,-40.28,1.36,-2.20,False,6,0,0,750.00,System,0.12,0.61,180.00,
1414434528226,,,0.80,868.00,395.00,34.00,1970.00,16.00,551.00,5668.00,0.00,50.00,-38.84,1.20,2.25,False,6,0,0,750.00,System,0.01,0.01,180.00,
1414434528384,,,-29.69,868.00,395.00,34.00,1970.00,16.00,551.00,5668.00,0.00,50.00,-39.25,1.18,-0.50,False,5,0,0,750.00,System,0.26,1.03,180.00,
1414434528558,,,-21.98,868.00,395.00,34.00,1970.00,16.00,551.00,5668.00,0.00,50.00,-40.00,0.93,-3.56,False,6,0,0,750.00,System,0.29,1.59,180.00,
1414434528702,,,5.70,868.00,395.00,34.00,1970.00,16.00,551.00,5668.00,0.00,50.00,-40.13,1.13,-0.13,False,5,0,0,750.00,System,0.00,0.00,180.00,
1414434528857,,,-20.74,868.00,395.00,34.00,1970.00,16.00,551.00,5668.00,0.00,50.00,-40.46,0.89,-2.89,False,6,0,0,750.00,System,0.21,0.74,180.00,
1414434529013,,,1.53,868.00,395.00,34.00,1970.00,16.00,551.00,5668.00,0.00,50.00,-40.31,0.90,-1.38,False,6,0,0,750.00,System,0.00,0.00,180.00,
1414434529190,,,12.40,868.00,395.00,34.00,1970.00,16.00,551.00,5668.00,0.00,50.00,-40.10,0.89,-0.38,False,6,0,0,750.00,System,0.00,0.00,180.00,
1414434529329,,,2.85,868.00,395.00,34.00,1970.00,16.00,551.00,5668.00,0.00,50.00,-39.94,0.77,-0.00,False,6,0,0,750.00,System,0.01,0.01,180.00,
1414434529501,,,13.55,868.00,395.00,34.00,1970.00,16.00,551.00,5668.00,0.00,50.00,-39.66,0.71,0.95,False,6,0,0,750.00,System,0.03,0.03,180.00,
1414434529679,,,1.40,868.00,395.00,34.00,1970.00,16.00,551.00,5668.00,0.00,50.00,-39.10,0.50,0.39,False,5,0,0,750.00,System,0.01,0.01,180.00,
1414434529826,,,26.55,868.00,395.00,34.00,1970.00,16.00,551.00,5668.00,0.00,50.00,-39.15,0.37,2.06,False,6,0,0,750.00,System,0.03,0.05,180.00,
1414434529976,,,9.31,868.00,395.00,34.00,1970.00,16.00,551.00,5668.00,0.00,50.00,-39.51,0.63,1.30,False,4,0,0,750.00,System,0.05,0.07,180.00,
1414434530152,,,31.11,868.00,395.00,34.00,1970.00,16.00,551.00,5668.00,0.00,50.00,-40.23,0.77,2.26,False,5,0,0,750.00,System,0.01,0.01,180.00,
1414434530291,,,5.48,868.00,395.00,34.00,1970.00,16.00,551.00,5668.00,0.00,50.00,-40.55,0.70,0.50,False,6,0,0,750.00,System,0.08,0.08,180.00,
1414434530452,,,39.88,868.00,395.00,34.00,1970.00,16.00,551.00,5668.00,0.00,50.00,-41.40,0.47,1.37,False,6,0,0,750.00,System,0.00,0.00,180.00,
1414434530627,,,25.03,868.00,395.00,34.00,1970.00,16.00,551.00,5668.00,0.00,50.00,-42.15,0.44,2.49,False,5,0,0,750.00,System,0.00,0.01,180.00,
1414434530761,,,30.99,868.00,395.00,34.00,1970.00,16.00,551.00,5668.00,0.00,50.00,-43.50,0.50,4.07,False,5,0,0,750.00,System,0.01,0.03,180.00,
1414434530918,,,29.68,868.00,395.00,34.00,1970.00,16.00,551.00,5668.00,0.00,50.00,-44.63,0.53,3.30,False,5,0,0,750.00,System,0.04,0.12,180.00,
1414434531103,,,23.11,868.00,395.00,34.00,1970.00,16.00,551.00,5668.00,0.00,50.00,-45.70,0.43,2.95,False,5,0,0,750.00,System,0.04,0.09,180.00,
1414434531233,,,20.19,868.00,395.00,34.00,1970.00,16.00,551.00,5668.00,0.00,50.00,-46.73,0.27,2.42,False,5,0,0,750.00,System,0.06,0.15,180.00,
1414434531410,,,26.51,868.00,395.00,34.00,1970.00,16.00,551.00,5668.00,0.00,50.00,-48.26,0.27,2.96,False,6,0,0,750.00,System,0.06,0.14,180.00,
1414434531568,,,2.05,868.00,395.00,34.00,1970.00,16.00,551.00,5668.00,0.00,50.00,-48.75,0.61,5.28,False,6,0,0,750.00,System,0.03,0.13,180.00,
1414434531709,,,3.10,868.00,395.00,34.00,1970.00,16.00,551.00,5668.00,0.00,50.00,-49.45,-0.19,4.69,False,6,0,0,750.00,System,0.13,0.26,180.00,
1414434531864,,,-10.78,868.00,395.00,34.00,1970.00,16.00,551.00,5668.00,0.00,50.00,-50.28,-0.25,2.19,False,5,0,0,750.00,System,0.13,0.13,180.00,
1414434532033,,,4.48,868.00,395.00,34.00,1970.00,16.00,551.00,5668.00,0.00,50.00,-51.21,-0.04,4.85,False,6,0,0,750.00,System,0.05,0.12,180.00,
1414434532176,,,-16.67,868.00,395.00,34.00,1970.00,16.00,551.00,5668.00,0.00,50.00,-52.03,0.00,2.78,False,6,0,0,750.00,System,0.16,0.40,180.00,
1414434532329,,,18.60,868.00,395.00,34.00,1970.00,16.00,551.00,5668.00,0.00,50.00,-52.72,0.10,3.20,False,5,0,0,750.00,System,0.09,0.09,180.00,
1414434532504,,,-10.79,868.00,395.00,34.00,1970.00,16.00,551.00,5668.00,0.00,50.00,-53.53,0.09,1.74,False,6,0,0,750.00,System,0.12,0.06,180.00,
1414434532658,,,4.11,868.00,395.00,34.00,1970.00,16.00,551.00,5668.00,0.00,50.00,-53.42,0.14,3.15,False,6,0,0,750.00,System,0.05,0.08,180.00,
1414434532814,,,3.48,868.00,395.00,34.00,1970.00,16.00,551.00,5668.00,0.00,50.00,-53.47,0.32,2.47,False,5,0,0,750.00,System,0.06,0.09,180.00,
1414434532974,,,10.43,868.00,395.00,34.00,1970.00,16.00,551.00,5668.00,0.00,50.00,-54.22,0.39,2.37,False,7,0,0,750.00,System,0.20,0.20,180.00,
1414434533130,,,2.03,868.00,395.00,34.00,1970.00,16.00,551.00,5668.00,0.00,50.00,-55.03,0.38,2.24,False,6,0,0,750.00,System,0.19,0.19,180.00,
1414434533293,,,11.44,868.00,395.00,34.00,1970.00,16.00,551.00,5668.00,0.00,50.00,-54.57,0.42,3.10,False,6,0,0,750.00,System,0.09,0.09,180.00,
1414434533452,,,2.64,868.00,395.00,34.00,1970.00,16.00,551.00,5668.00,0.00,50.00,-54.65,0.42,2.10,False,6,0,0,750.00,System,0.14,0.14,180.00,
1414434533616,,,1.11,868.00,395.00,34.00,1970.00,16.00,551.00,5668.00,0.00,50.00,-54.74,0.39,2.50,False,7,0,0,750.00,System,0.31,0.31,180.00,
1414434533770,,,-0.44,868.00,395.00,34.00,1970.00,16.00,551.00,5668.00,0.00,50.00,-55.22,0.42,2.35,False,6,0,0,750.00,System,0.11,0.11,180.00,
1414434533946,,,-1.76,868.00,395.00,34.00,1970.00,16.00,551.00,5668.00,0.00,50.00,-55.60,0.48,-0.79,False,5,0,0,750.00,System,0.15,0.36,180.00,
1414434534100,,,19.96,868.00,395.00,34.00,1970.00,16.00,551.00,5668.00,0.00,50.00,-55.23,0.71,2.03,False,6,0,0,750.00,System,0.00,0.00,180.00,
1414434534254,,,-4.48,868.00,395.00,34.00,1970.00,16.00,551.00,5668.00,0.00,50.00,-55.12,0.70,2.51,False,6,0,0,750.00,System,0.12,0.06,180.00,
1414434534403,,,-13.66,868.00,395.00,34.00,1970.00,16.00,551.00,5668.00,0.00,50.00,-54.67,0.74,0.96,False,5,0,0,750.00,System,0.06,0.03,180.00,
1414434534564,,,11.57,868.00,395.00,34.00,1970.00,16.00,551.00,5668.00,0.00,50.00,-54.49,0.81,2.01,False,6,0,0,750.00,System,0.05,0.05,180.00,
1414434534719,,,9.63,868.00,395.00,34.00,1970.00,16.00,551.00,5668.00,0.00,50.00,-53.93,0.72,2.37,False,7,0,0,750.00,System,0.06,0.03,180.00,
1414434534884,,,-22.68,868.00,395.00,34.00,1970.00,16.00,551.00,5668.00,0.00,50.00,-54.15,0.71,-1.04,False,9,0,0,750.00,System,0.45,2.01,180.00,
1414434535058,,,18.66,868.00,395.00,34.00,1970.00,16.00,551.00,5668.00,0.00,50.00,-53.96,0.67,0.44,False,6,0,0,750.00,System,0.00,0.00,180.00,
1414434535198,,,17.32,868.00,395.00,34.00,1970.00,16.00,551.00,5668.00,0.00,50.00,-54.25,0.58,2.94,False,5,0,0,750.00,System,0.02,0.02,180.00,
1414434535354,,,-10.75,868.00,395.00,34.00,1970.00,16.00,551.00,5668.00,0.00,50.00,-54.32,0.51,1.54,False,5,0,0,750.00,System,0.14,0.14,180.00,
1414434535510,,,-14.64,868.00,395.00,34.00,1970.00,16.00,551.00,5668.00,0.00,50.00,-54.58,0.58,2.08,False,6,0,0,750.00,System,0.28,0.28,180.00,
1414434535669,,,-27.89,868.00,395.00,34.00,1970.00,16.00,551.00,5668.00,0.00,50.00,-54.43,0.61,0.95,False,5,0,0,750.00,System,0.05,0.05,180.00,
1414434535828,,,10.25,868.00,395.00,34.00,1970.00,16.00,551.00,5668.00,0.00,50.00,-54.97,0.48,2.22,False,6,0,0,750.00,System,0.17,0.34,180.00,
1414434535991,,,-15.18,868.00,395.00,34.00,1970.00,16.00,551.00,5668.00,0.00,50.00,-54.61,0.20,1.20,False,6,0,0,750.00,System,0.24,0.84,180.00,
1414434536171,,,-34.01,868.00,395.00,34.00,1970.00,16.00,551.00,5668.00,0.00,50.00,-54.50,0.09,-0.68,False,5,0,0,750.00,System,0.07,0.14,180.00,
1414434536317,,,4.58,868.00,395.00,34.00,1970.00,16.00,551.00,5668.00,0.00,50.00,-54.06,-0.02,1.94,False,6,0,0,750.00,System,0.00,0.00,180.00,
1414434536487,,,-16.74,868.00,395.00,34.00,1970.00,16.00,551.00,5668.00,0.00,50.00,-53.46,0.13,1.13,False,5,0,0,750.00,System,0.18,0.36,180.00,
1414434536644,,,-18.34,868.00,395.00,34.00,1970.00,16.00,551.00,5668.00,0.00,50.00,-52.33,0.08,-2.03,False,6,0,0,750.00,System,0.10,0.25,180.00,
1414434536795,,,11.09,868.00,395.00,34.00,1970.00,16.00,551.00,5668.00,0.00,50.00,-50.98,0.35,0.82,False,5,0,0,750.00,System,0.01,0.00,180.00,
1414434536953,,,-13.22,868.00,395.00,34.00,1970.00,16.00,551.00,5668.00,0.00,50.00,-50.50,0.52,1.76,False,5,0,0,750.00,System,0.07,0.04,180.00,
1414434537115,,,-33.44,868.00,395.00,34.00,1970.00,16.00,551.00,5668.00,0.00,50.00,-51.14,0.58,2.20,False,6,0,0,750.00,System,0.20,0.40,180.00,
1414434537271,,,-62.72,868.00,395.00,34.00,1970.00,16.00,551.00,5668.00,0.00,50.00,-52.06,0.57,1.31,False,5,0,0,750.00,System,0.28,0.84,180.00,
1414434537443,,,-49.88,868.00,395.00,34.00,1970.00,16.00,551.00,5668.00,0.00,50.00,-53.00,0.45,0.33,False,5,0,0,750.00,System,0.21,0.85,180.00,
1414434537591,,,-64.43,868.00,395.00,34.00,1970.00,16.00,551.00,5668.00,0.00,50.00,-53.74,0.67,-1.40,False,7,0,0,750.00,System,0.44,2.00,180.00,
1414434537743,,,-35.52,868.00,395.00,34.00,1970.00,16.00,551.00,5668.00,0.00,50.00,-53.74,1.06,-0.63,False,5,0,0,750.00,System,0.10,0.37,180.00,
1414434537909,,,-52.31,868.00,395.00,34.00,1970.00,16.00,551.00,5668.00,0.00,50.00,-53.66,0.84,-3.23,False,5,0,0,750.00,System,0.15,0.66,180.00,
1414434538065,,,-24.34,868.00,395.00,34.00,1970.00,16.00,551.00,5668.00,0.00,50.00,-52.84,0.69,-3.67,False,5,0,0,750.00,System,0.09,0.53,180.00,
1414434538228,,,-24.06,868.00,395.00,34.00,1970.00,16.00,551.00,5668.00,0.00,50.00,-51.65,0.36,-0.15,False,6,0,0,750.00,System,0.02,0.06,180.00,
1414434538384,,,-50.59,868.00,395.00,34.00,1970.00,16.00,551.00,5668.00,0.00,50.00,-51.35,0.16,0.16,False,5,0,0,750.00,System,0.06,0.18,180.00,
1414434538544,,,-56.64,868.00,395.00,34.00,1970.00,16.00,551.00,5668.00,0.00,50.00,-50.94,-0.01,-0.94,False,6,0,0,750.00,System,0.21,0.85,180.00,
1414434538700,,,-58.78,868.00,395.00,34.00,1970.00,16.00,551.00,5668.00,0.00,50.00,-50.41,0.17,-1.01,False,5,0,0,750.00,System,0.34,1.69,180.00,
1414434538851,,,-45.22,868.00,395.00,34.00,1970.00,16.00,551.00,5668.00,0.00,50.00,-50.21,0.59,-1.75,False,7,0,0,750.00,System,0.00,0.01,180.00,
1414434539025,,,-36.81,868.00,395.00,34.00,1970.00,16.00,551.00,5668.00,0.00,50.00,-50.19,0.53,-3.58,False,5,0,0,750.00,System,0.35,1.74,180.00,
1414434539160,,,-7.34,868.00,395.00,34.00,1970.00,16.00,551.00,5668.00,0.00,50.00,-50.33,0.44,-3.80,False,6,0,0,750.00,System,0.01,0.06,180.00,
1414434539339,,,-8.91,868.00,395.00,34.00,1970.00,16.00,551.00,5668.00,0.00,50.00,-49.87,0.31,-1.12,False,7,0,0,750.00,System,0.00,0.00,180.00,
1414434539474,,,-29.48,868.00,395.00,34.00,1970.00,16.00,551.00,5668.00,0.00,50.00,-49.09,0.10,-1.79,False,5,0,0,750.00,System,0.01,0.04,180.00,
1414434539633,,,-18.51,868.00,395.00,34.00,1970.00,16.00,551.00,5668.00,0.00,50.00,-48.56,0.14,-2.61,False,6,0,0,750.00,System,0.03,0.10,180.00,
1414434539789,,,32.40,868.00,395.00,34.00,1970.00,16.00,551.00,5668.00,0.00,50.00,-47.90,0.25,4.20,False,6,0,0,750.00,System,0.01,0.02,180.00,
1414434539950,,,-70.23,868.00,395.00,34.00,1970.00,16.00,551.00,5668.00,0.00,50.00,-46.25,0.33,-1.22,False,6,0,0,750.00,System,0.71,2.49,180.00,
1414434540126,,,-3.99,868.00,395.00,34.00,1970.00,16.00,551.00,5668.00,0.00,50.00,-45.41,0.76,-5.13,False,6,0,0,750.00,System,0.19,1.24,180.00,
1414434540265,,,13.68,868.00,395.00,34.00,1970.00,16.00,551.00,5668.00,0.00,50.00,-44.68,0.87,-3.73,False,7,0,0,750.00,System,0.05,0.02,180.00,
1414434540423,,,10.05,868.00,395.00,34.00,1970.00,16.00,551.00,5668.00,0.00,50.00,-44.80,1.08,-1.14,False,6,0,0,750.00,System,0.15,0.37,180.00,
1414434540580,,,13.35,868.00,395.00,34.00,1970.00,16.00,551.00,5668.00,0.00,50.00,-45.15,1.13,0.25,False,6,0,0,750.00,System,0.05,0.26,180.00,
1414434540737,,,44.27,868.00,395.00,34.00,1970.00,16.00,551.00,5668.00,0.00,50.00,-46.12,1.26,1.25,False,7,0,0,750.00,System,0.00,0.01,180.00,
1414434540894,,,60.54,868.00,395.00,34.00,1970.00,16.00,551.00,5668.00,0.00,50.00,-46.53,1.35,4.83,False,5,0,0,750.00,System,0.03,0.17,180.00,
1414434541051,,,5.52,868.00,395.00,34.00,1970.00,16.00,551.00,5668.00,0.00,50.00,-47.33,1.46,5.83,False,5,0,0,750.00,System,0.04,0.20,180.00,
1414434541218,,,0.31,868.00,395.00,34.00,1970.00,16.00,551.00,5668.00,0.00,50.00,-48.49,0.79,3.49,False,6,0,0,750.00,System,0.19,0.37,180.00,
1414434541375,,,-14.35,868.00,395.00,34.00,1970.00,16.00,551.00,5668.00,0.00,50.00,-50.01,0.81,0.85,False,6,0,0,750.00,System,0.18,0.18,180.00,
1414434541530,,,32.04,868.00,395.00,34.00,1970.00,16.00,551.00,5668.00,0.00,50.00,-50.57,1.05,3.14,False,6,0,0,750.00,System,0.02,0.05,180.00,
1414434541686,,,17.67,868.00,395.00,34.00,1970.00,16.00,551.00,5668.00,0.00,50.00,-51.98,0.71,1.87,False,6,0,0,750.00,System,0.05,0.07,180.00,
1414434541837,,,11.22,868.00,395.00,34.00,1970.00,16.00,551.00,5668.00,0.00,50.00,-53.98,0.67,2.32,False,7,0,0,750.00,System,0.15,0.23,180.00,
1414434541996,,,-9.48,868.00,395.00,34.00,1970.00,16.00,551.00,5668.00,0.00,50.00,-55.26,0.78,1.09,False,6,0,0,750.00,System,0.10,0.14,180.00,
1414434542148,,,23.92,868.00,395.00,34.00,1970.00,16.00,551.00,5668.00,0.00,50.00,-55.62,0.74,3.87,False,6,0,0,750.00,System,0.00,0.00,180.00,
1414434542313,,,-0.66,868.00,395.00,34.00,1970.00,16.00,551.00,5668.00,0.00,50.00,-56.35,0.62,3.11,False,5,0,0,750.00,System,0.07,0.17,180.00,
1414434542472,,,0.96,868.00,395.00,34.00,1970.00,16.00,551.00,5668.00,0.00,50.00,-57.86,0.62,2.25,False,5,0,0,750.00,System,0.04,0.04,180.00,
1414434542628,,,15.97,868.00,395.00,34.00,1970.00,16.00,551.00,5668.00,0.00,50.00,-59.38,0.58,3.45,False,5,0,0,750.00,System,0.04,0.04,180.00,
1414434542779,,,0.32,868.00,395.00,34.00,1970.00,16.00,551.00,5668.00,0.00,50.00,-60.05,0.44,2.65,False,5,0,0,750.00,System,0.14,0.14,180.00,
1414434542936,,,-7.90,868.00,395.00,34.00,1970.00,16.00,551.00,5668.00,0.00,50.00,-60.34,0.48,1.55,False,6,0,0,750.00,System,0.12,0.12,180.00,
1414434543091,,,10.08,868.00,395.00,34.00,1970.00,16.00,551.00,5668.00,0.00,50.00,-60.85,0.44,1.81,False,6,0,0,750.00,System,0.03,0.01,180.00,
1414434543243,,,-2.43,868.00,395.00,34.00,1970.00,16.00,551.00,5668.00,0.00,50.00,-61.95,0.42,0.76,False,6,0,0,750.00,System,0.08,0.04,180.00,
1414434543389,,,11.99,868.00,395.00,34.00,1970.00,16.00,551.00,5668.00,0.00,50.00,-62.53,0.44,2.22,False,5,0,0,750.00,System,0.00,0.00,180.00,
1414434543565,,,16.25,868.00,395.00,34.00,1970.00,16.00,551.00,5668.00,0.00,50.00,-63.57,0.40,3.54,False,5,0,0,750.00,System,0.01,0.02,180.00,
1414434543704,,,3.96,868.00,395.00,34.00,1970.00,16.00,551.00,5668.00,0.00,50.00,-64.46,0.39,3.37,False,6,0,0,750.00,System,0.14,0.27,180.00,
1414434543868,,,12.66,868.00,395.00,34.00,1970.00,16.00,551.00,5668.00,0.00,50.00,-65.63,0.32,2.33,False,5,0,0,750.00,System,0.16,0.16,180.00,
1414434544021,,,16.49,868.00,395.00,34.00,1970.00,16.00,551.00,5668.00,0.00,50.00,-65.43,0.36,2.99,False,5,0,0,750.00,System,0.08,0.13,180.00,
1414434544179,,,-0.43,868.00,395.00,34.00,1970.00,16.00,551.00,5668.00,0.00,50.00,-65.78,0.32,2.83,False,5,0,0,750.00,System,0.12,0.18,180.00,
1414434544348,,,-1.17,868.00,395.00,34.00,1970.00,16.00,551.00,5668.00,0.00,50.00,-66.07,0.39,2.98,False,6,0,0,750.00,System,0.13,0.07,180.00,
1414434544491,,,-14.99,868.00,395.00,34.00,1970.00,16.00,551.00,5668.00,0.00,50.00,-66.17,0.33,2.97,False,5,0,0,750.00,System,0.08,0.08,180.00,
1414434544655,,,-25.48,868.00,395.00,34.00,1970.00,16.00,551.00,5668.00,0.00,50.00,-66.02,0.38,2.42,False,6,0,0,750.00,System,0.16,0.23,180.00,
1414434544803,,,-17.16,868.00,395.00,34.00,1970.00,16.00,551.00,5668.00,0.00,50.00,-66.08,0.37,1.68,False,6,0,0,750.00,System,0.12,0.12,180.00,
1414434544966,,,-8.69,868.00,395.00,34.00,1970.00,16.00,551.00,5668.00,0.00,50.00,-66.07,0.65,0.79,False,6,0,0,750.00,System,0.06,0.06,180.00,
1414434545122,,,-9.33,868.00,395.00,34.00,1970.00,16.00,551.00,5668.00,0.00,50.00,-66.04,0.75,0.64,False,5,0,0,750.00,System,0.15,0.29,180.00,
1414434545281,,,-2.54,868.00,395.00,34.00,1970.00,16.00,551.00,5668.00,0.00,50.00,-65.84,0.73,1.12,False,5,0,0,750.00,System,0.07,0.11,180.00,
1414434545441,,,-3.82,868.00,395.00,34.00,1970.00,16.00,551.00,5668.00,0.00,50.00,-65.60,0.59,1.98,False,5,0,0,750.00,System,0.03,0.03,180.00,
1414434545622,,,-24.05,868.00,395.00,34.00,1970.00,16.00,551.00,5668.00,0.00,50.00,-65.51,0.45,2.18,False,5,0,0,750.00,System,0.11,0.11,180.00,
1414434545763,,,-14.61,868.00,395.00,34.00,1970.00,16.00,551.00,5668.00,0.00,50.00,-65.47,0.43,1.40,False,5,0,0,750.00,System,0.05,0.05,180.00,
1414434545917,,,-17.38,868.00,395.00,34.00,1970.00,16.00,551.00,5668.00,0.00,50.00,-65.30,0.49,0.65,False,6,0,0,750.00,System,0.10,0.14,180.00,
1414434546247,,,-9.88,868.00,395.00,34.00,1970.00,16.00,551.00,5668.00,0.00,50.00,-65.39,0.59,0.76,False,7,0,0,750.00,System,0.02,0.01,180.00,
1414434546400,,,-11.25,868.00,395.00,34.00,1970.00,16.00,551.00,5668.00,0.00,50.00,-65.81,0.45,1.82,False,6,0,0,750.00,System,0.06,0.03,180.00,
1414434546577,,,-25.55,868.00,395.00,34.00,1970.00,16.00,551.00,5668.00,0.00,50.00,-66.25,0.32,1.53,False,6,0,0,750.00,System,0.09,0.14,180.00,
1414434546717,,,-36.63,868.00,395.00,34.00,1970.00,16.00,551.00,5668.00,0.00,50.00,-66.41,0.31,-0.78,False,5,0,0,750.00,System,0.20,0.40,180.00,
1414434546892,,,-0.19,868.00,395.00,34.00,1970.00,16.00,551.00,5668.00,0.00,50.00,-66.80,0.36,1.07,False,5,0,0,750.00,System,0.01,0.02,180.00,
1414434547037,,,-24.30,868.00,395.00,34.00,1970.00,16.00,551.00,5668.00,0.00,50.00,-66.85,0.43,-0.82,False,5,0,0,750.00,System,0.18,0.53,180.00,
1414434547216,,,-25.80,868.00,395.00,34.00,1970.00,16.00,551.00,5668.00,0.00,50.00,-67.40,0.96,-1.45,False,6,0,0,750.00,System,0.08,0.26,180.00,
